{"type":"FeatureCollection","features":[{"type":"Feature","geometry":{"type":"Point","coordinates":[126.490077,33.481614]},"properties":{"seq":2819162,"regDate":1584155787271,"simpleNm":"#살롱","zipCd":"63139","addr":"제주 제주시 연북로 82","telNo":null,"bizType":"1207","bizTypeNm":"신변잡화","bizTypeDetail":"일반신발점","salesCd":"145"}},{"type":"Feature","geometry":{"type":"Point","coordinates":[126.263631,33.336834]},"properties":{"seq":305095,"regDate":1584138939685,"simpleNm":"(주)몽생이","zipCd":"63005","addr":"제주 제주시 한경면 저지12길 72-16","telNo":"064)796-8285","bizType":"1004","bizTypeNm":"의류","bizTypeDetail":"기성복점","salesCd":"145"}},{"type":"Feature","geometry":{"type":"Point","coordinates":[126.528304,33.499678]},"properties":{"seq":4339707,"regDate":1623795017961,"simpleNm":"(주)블리오","zipCd":"63207","addr":"제주 제주시 서광로32길 9","telNo":"02)0000-0000","bizType":"1201","bizTypeNm":"신변잡화","bizTypeDetail":"악세사리점","salesCd":"165"}},{"type":"Feature","geometry":{"type":"Point","coordinates":[0,0]},"properties":{"seq":79890,"regDate":1584137371039,"simpleNm":"(주)탐라인터내쇼날","zipCd":"690836","addr":"제주 제주시 일도1동","telNo":"064)757-1851","bizType":"1004","bizTypeNm":"의류","bizTypeDetail":"기성복점","salesCd":"145"}},{"type":"Feature","geometry":{"type":"Point","coordinates":[126.572511,33.26682]},"properties":{"seq":2520995,"regDate":1584153905878,"simpleNm":"19-12호","zipCd":"63579","addr":"제주 서귀포시 중산간동로7894번길 18-5","telNo":"070)0533-8429","bizType":"1004","bizTypeNm":"의류","bizTypeDetail":"기성복점","salesCd":"145"}},{"type":"Feature","geometry":{"type":"Point","coordinates":[126.563039,33.247422]},"properties":{"seq":2455936,"regDate":1584153513443,"simpleNm":"1920","zipCd":"63595","addr":"제주 서귀포시 중정로62번길 5","telNo":"064)762-6767","bizType":"1004","bizTypeNm":"의류","bizTypeDetail":"기성복점","salesCd":"145"}},{"type":"Feature","geometry":{"type":"Point","coordinates":[126.530004,33.497295]},"properties":{"seq":2623292,"regDate":1584154541551,"simpleNm":"1984어썸","zipCd":"63207","addr":"제주 제주시 서광로32길 41","telNo":"064)111-1111","bizType":"1004","bizTypeNm":"의류","bizTypeDetail":"기성복점","salesCd":"145"}},{"type":"Feature","geometry":{"type":"Point","coordinates":[126.490181,33.488005]},"properties":{"seq":2861092,"regDate":1584156049198,"simpleNm":"1985 기역니은디귿","zipCd":"63124","addr":"제주 제주시 신광로 45","telNo":"064)000-0000","bizType":"1201","bizTypeNm":"신변잡화","bizTypeDetail":"악세사리점","salesCd":"145"}},{"type":"Feature","geometry":{"type":"Point","coordinates":[126.490223,33.488705]},"properties":{"seq":1113197,"regDate":1584144641237,"simpleNm":"28페이지(PAGE)","zipCd":"63124","addr":"제주 제주시 신광로 37","telNo":"064)711-7728","bizType":"1099","bizTypeNm":"의류","bizTypeDetail":"기타 의류","salesCd":"145"}},{"type":"Feature","geometry":{"type":"Point","coordinates":[126.53501,33.487096]},"properties":{"seq":2456583,"regDate":1584153517343,"simpleNm":"2헨느","zipCd":"63233","addr":"제주 제주시 이도이동","telNo":"064)724-2121","bizType":"1004","bizTypeNm":"의류","bizTypeDetail":"기성복점","salesCd":"145"}},{"type":"Feature","geometry":{"type":"Point","coordinates":[126.475718,33.489401]},"properties":{"seq":75348,"regDate":1584137337235,"simpleNm":"3.4.1","zipCd":"63096","addr":"제주 제주시 월랑로 44","telNo":"064)748-3414","bizType":"1004","bizTypeNm":"의류","bizTypeDetail":"기성복점","salesCd":"145"}},{"type":"Feature","geometry":{"type":"Point","coordinates":[126.524366,33.51303]},"properties":{"seq":1126543,"regDate":1584144736755,"simpleNm":"31호","zipCd":"63168","addr":"제주 제주시 중앙로 지하 60","telNo":"064)722-3101","bizType":"1099","bizTypeNm":"의류","bizTypeDetail":"기타 의류","salesCd":"145"}},{"type":"Feature","geometry":{"type":"Point","coordinates":[126.52451,33.512775]},"properties":{"seq":655972,"regDate":1584141338994,"simpleNm":"393 핏 스트릿","zipCd":"63168","addr":"제주 제주시 중앙로 60","telNo":"064)751-4998","bizType":"1004","bizTypeNm":"의류","bizTypeDetail":"기성복점","salesCd":"145"}},{"type":"Feature","geometry":{"type":"Point","coordinates":[126.541243,33.490579]},"properties":{"seq":3092179,"regDate":1584157528773,"simpleNm":"3컨셉(concept)","zipCd":"63230","addr":"제주 제주시 남광로2길 39-19","telNo":"064)784-3285","bizType":"1004","bizTypeNm":"의류","bizTypeDetail":"기성복점","salesCd":"145"}},{"type":"Feature","geometry":{"type":"Point","coordinates":[126.478495,33.485648]},"properties":{"seq":203662,"regDate":1584138228712,"simpleNm":"50센트","zipCd":"63099","addr":"제주 제주시 노형로 407","telNo":"064)724-5437","bizType":"1004","bizTypeNm":"의류","bizTypeDetail":"기성복점","salesCd":"145"}},{"type":"Feature","geometry":{"type":"Point","coordinates":[126.474676,33.489425]},"properties":{"seq":4024817,"regDate":1600294139498,"simpleNm":"622쥬얼리","zipCd":"63100","addr":"제주 제주시 달마루길 10-3","telNo":"064)712-3456","bizType":"1201","bizTypeNm":"신변잡화","bizTypeDetail":"악세사리점","salesCd":"145"}},{"type":"Feature","geometry":{"type":"Point","coordinates":[126.526775,33.514267]},"properties":{"seq":4480987,"regDate":1634854160438,"simpleNm":"80에이치(H)","zipCd":"63277","addr":"제주 제주시 관덕로15길 12-1","telNo":"064)722-2736","bizType":"1004","bizTypeNm":"의류","bizTypeDetail":"기성복점","salesCd":"145"}},{"type":"Feature","geometry":{"type":"Point","coordinates":[126.516454,33.492674]},"properties":{"seq":2136974,"regDate":1584151554615,"simpleNm":"8월의신부","zipCd":"63191","addr":"제주 제주시 오라일동","telNo":"070)4696-0565","bizType":"1004","bizTypeNm":"의류","bizTypeDetail":"기성복점","salesCd":"145"}},{"type":"Feature","geometry":{"type":"Point","coordinates":[126.545332,33.49456]},"properties":{"seq":1823395,"regDate":1584149654130,"simpleNm":"Ark","zipCd":"63227","addr":"제주 제주시 신설로7길 37","telNo":"064)757-5858","bizType":"1004","bizTypeNm":"의류","bizTypeDetail":"기성복점","salesCd":"145"}},{"type":"Feature","geometry":{"type":"Point","coordinates":[126.264833,33.412412]},"properties":{"seq":330695,"regDate":1584139119332,"simpleNm":"BYC.속옷나라","zipCd":"63032","addr":"제주 제주시 한림읍","telNo":"064)796-2663","bizType":"1008","bizTypeNm":"의류","bizTypeDetail":"내의판매점","salesCd":"145"}},{"type":"Feature","geometry":{"type":"Point","coordinates":[126.564081,33.248966]},"properties":{"seq":266278,"regDate":1584138662930,"simpleNm":"BYC재명상회","zipCd":"63591","addr":"제주 서귀포시 서귀동","telNo":"064)733-2098","bizType":"1008","bizTypeNm":"의류","bizTypeDetail":"내의판매점","salesCd":"145"}},{"type":"Feature","geometry":{"type":"Point","coordinates":[0,0]},"properties":{"seq":721733,"regDate":1584141804157,"simpleNm":"BYC제주","zipCd":"690836","addr":"제주 제주시 일도1동","telNo":"064)727-4477","bizType":"1008","bizTypeNm":"의류","bizTypeDetail":"내의판매점","salesCd":"160"}},{"type":"Feature","geometry":{"type":"Point","coordinates":[126.490198,33.488927]},"properties":{"seq":509956,"regDate":1584140333811,"simpleNm":"D.SDEMOO","zipCd":"63124","addr":"제주 제주시 연동","telNo":"064)743-7020","bizType":"1004","bizTypeNm":"의류","bizTypeDetail":"기성복점","salesCd":"165"}},{"type":"Feature","geometry":{"type":"Point","coordinates":[126.891927,33.51117]},"properties":{"seq":4422197,"regDate":1630015697386,"simpleNm":"Dallang-jeju(달랑제주)","zipCd":"63363","addr":"제주 제주시 구좌읍 하도13길 51-1","telNo":"064)000-0000","bizType":"1201","bizTypeNm":"신변잡화","bizTypeDetail":"악세사리점","salesCd":"145"}},{"type":"Feature","geometry":{"type":"Point","coordinates":[126.549539,33.474057]},"properties":{"seq":2345926,"regDate":1584152838577,"simpleNm":"For scent","zipCd":"63248","addr":"제주 제주시 인다11길 19","telNo":"064)721-2896","bizType":"1299","bizTypeNm":"신변잡화","bizTypeDetail":"기타 신변잡화","salesCd":"145"}},{"type":"Feature","geometry":{"type":"Point","coordinates":[126.524917,33.507003]},"properties":{"seq":2833699,"regDate":1584155879327,"simpleNm":"GAIA","zipCd":"63194","addr":"제주 제주시 중앙로 131","telNo":"064)722-2065","bizType":"1299","bizTypeNm":"신변잡화","bizTypeDetail":"기타 신변잡화","salesCd":"145"}},{"type":"Feature","geometry":{"type":"Point","coordinates":[126.561404,33.251159]},"properties":{"seq":2623990,"regDate":1584154546211,"simpleNm":"H.Z서귀포점","zipCd":"63591","addr":"제주 서귀포시 중앙로 74","telNo":"064)732-8225","bizType":"1004","bizTypeNm":"의류","bizTypeDetail":"기성복점","salesCd":"160"}},{"type":"Feature","geometry":{"type":"Point","coordinates":[126.524122,33.511388]},"properties":{"seq":342000,"regDate":1584139192542,"simpleNm":"IN","zipCd":"63168","addr":"제주 제주시 이도일동","telNo":"064)722-2435","bizType":"1004","bizTypeNm":"의류","bizTypeDetail":"기성복점","salesCd":"145"}},{"type":"Feature","geometry":{"type":"Point","coordinates":[0,0]},"properties":{"seq":799110,"regDate":1584142345775,"simpleNm":"J&D","zipCd":"690780","addr":"제주 제주시 일도1동","telNo":"064)724-6244","bizType":"1099","bizTypeNm":"의류","bizTypeDetail":"기타 의류","salesCd":"145"}},{"type":"Feature","geometry":{"type":"Point","coordinates":[126.527059,33.514374]},"properties":{"seq":4430759,"regDate":1630620675485,"simpleNm":"JUNG fashion","zipCd":"63277","addr":"제주 제주시 칠성로길 39","telNo":"064)747-8360","bizType":"1004","bizTypeNm":"의류","bizTypeDetail":"기성복점","salesCd":"145"}},{"type":"Feature","geometry":{"type":"Point","coordinates":[126.478495,33.485648]},"properties":{"seq":767479,"regDate":1584142118906,"simpleNm":"Joy Feel (조은느낌)","zipCd":"63099","addr":"제주 제주시 노형로 407","telNo":null,"bizType":"1201","bizTypeNm":"신변잡화","bizTypeDetail":"악세사리점","salesCd":"145"}},{"type":"Feature","geometry":{"type":"Point","coordinates":[126.543242,33.491008]},"properties":{"seq":1659188,"regDate":1584148485071,"simpleNm":"J콜렉션","zipCd":"63230","addr":"제주 제주시 박성내동길 43","telNo":"064)724-5878","bizType":"1004","bizTypeNm":"의류","bizTypeDetail":"기성복점","salesCd":"145"}},{"type":"Feature","geometry":{"type":"Point","coordinates":[0,0]},"properties":{"seq":938240,"regDate":1584143317005,"simpleNm":"K G B할인매장","zipCd":"690829","addr":"제주 제주시 이도1동","telNo":"064)755-8531","bizType":"1205","bizTypeNm":"신변잡화","bizTypeDetail":"가방점","salesCd":"145"}},{"type":"Feature","geometry":{"type":"Point","coordinates":[126.516027,33.507194]},"properties":{"seq":840747,"regDate":1584142648096,"simpleNm":"K#","zipCd":"63173","addr":"제주 제주시 서사로8길 37","telNo":"064)752-8118","bizType":"1099","bizTypeNm":"의류","bizTypeDetail":"기타 의류","salesCd":"145"}},{"type":"Feature","geometry":{"type":"Point","coordinates":[126.492239,33.489705]},"properties":{"seq":2398163,"regDate":1584153159968,"simpleNm":"KSD","zipCd":"63124","addr":"제주 제주시 삼무로 52","telNo":"064)752-7332","bizType":"1201","bizTypeNm":"신변잡화","bizTypeDetail":"악세사리점","salesCd":"145"}},{"type":"Feature","geometry":{"type":"Point","coordinates":[126.855122,33.525976]},"properties":{"seq":1556848,"regDate":1584147746586,"simpleNm":"LH유통","zipCd":"63361","addr":"제주 제주시 구좌읍 세화1길 30","telNo":"070)7337-1532","bizType":"1205","bizTypeNm":"신변잡화","bizTypeDetail":"가방점","salesCd":"145"}},{"type":"Feature","geometry":{"type":"Point","coordinates":[126.528188,33.499603]},"properties":{"seq":1425613,"regDate":1584146849980,"simpleNm":"M&K","zipCd":"63207","addr":"제주 제주시 서광로32길 10","telNo":"070)7753-7123","bizType":"1004","bizTypeNm":"의류","bizTypeDetail":"기성복점","salesCd":"145"}},{"type":"Feature","geometry":{"type":"Point","coordinates":[126.832441,33.323216]},"properties":{"seq":3087050,"regDate":1584157496649,"simpleNm":"MILL STUDIO","zipCd":"63629","addr":"제주 서귀포시 표선면 표선관정로117번길 1","telNo":"064)111-1111","bizType":"1004","bizTypeNm":"의류","bizTypeDetail":"기성복점","salesCd":"145"}},{"type":"Feature","geometry":{"type":"Point","coordinates":[126.542655,33.492197]},"properties":{"seq":2459037,"regDate":1584153532057,"simpleNm":"Mignon","zipCd":"63231","addr":"제주 제주시 승천로 74","telNo":"02)1111-1111","bizType":"1007","bizTypeNm":"의류","bizTypeDetail":"아동 및 유아복점","salesCd":"145"}},{"type":"Feature","geometry":{"type":"Point","coordinates":[0,0]},"properties":{"seq":495209,"regDate":1584140230202,"simpleNm":"NAVI","zipCd":"690021","addr":"제주 제주시 이도1동","telNo":"064)722-7821","bizType":"1099","bizTypeNm":"의류","bizTypeDetail":"기타 의류","salesCd":"145"}},{"type":"Feature","geometry":{"type":"Point","coordinates":[126.490103,33.486619]},"properties":{"seq":2804288,"regDate":1584155694222,"simpleNm":"NBA신제주점","zipCd":"63123","addr":"제주 제주시 신광로 61","telNo":"064)711-4564","bizType":"1004","bizTypeNm":"의류","bizTypeDetail":"기성복점","salesCd":"145"}},{"type":"Feature","geometry":{"type":"Point","coordinates":[126.706334,33.552551]},"properties":{"seq":3086226,"regDate":1584157491348,"simpleNm":"NOV4(노벰버4)","zipCd":"63347","addr":"제주 제주시 구좌읍 일주동로 1626","telNo":"064)000-0000","bizType":"1004","bizTypeNm":"의류","bizTypeDetail":"기성복점","salesCd":"145"}},{"type":"Feature","geometry":{"type":"Point","coordinates":[0,0]},"properties":{"seq":50139,"regDate":1584137155312,"simpleNm":"O.S.T","zipCd":"690780","addr":"제주 제주시 일도1동","telNo":"064)702-9788","bizType":"1201","bizTypeNm":"신변잡화","bizTypeDetail":"악세사리점","salesCd":"145"}},{"type":"Feature","geometry":{"type":"Point","coordinates":[0,0]},"properties":{"seq":18757,"regDate":1584136950170,"simpleNm":"P.L스쿨웨어(러브패션)아이니","zipCd":"690828","addr":"제주 제주시 이도1동","telNo":"064)723-3445","bizType":"1001","bizTypeNm":"의류","bizTypeDetail":"맞춤복점","salesCd":"165"}},{"type":"Feature","geometry":{"type":"Point","coordinates":[126.489831,33.485626]},"properties":{"seq":3520362,"regDate":1584160369541,"simpleNm":"PING","zipCd":"63132","addr":"제주 제주시 신광로 72","telNo":"064)745-5522","bizType":"1004","bizTypeNm":"의류","bizTypeDetail":"기성복점","salesCd":"160"}},{"type":"Feature","geometry":{"type":"Point","coordinates":[126.507846,33.493235]},"properties":{"seq":4790732,"regDate":1658268728289,"simpleNm":"PUSH OFF","zipCd":"63148","addr":"제주 제주시 연삼로 145","telNo":"064)0000-0000","bizType":"1004","bizTypeNm":"의류","bizTypeDetail":"기성복점","salesCd":"145"}},{"type":"Feature","geometry":{"type":"Point","coordinates":[126.390248,33.247977]},"properties":{"seq":1680282,"regDate":1584148634287,"simpleNm":"SARI(사리)","zipCd":"63537","addr":"제주 서귀포시 상예로 15","telNo":"02)745-7451","bizType":"1201","bizTypeNm":"신변잡화","bizTypeDetail":"악세사리점","salesCd":"145"}},{"type":"Feature","geometry":{"type":"Point","coordinates":[126.374413,33.430488]},"properties":{"seq":4573063,"regDate":1641852428242,"simpleNm":"SOGILBYEOLHA","zipCd":"63037","addr":"제주 제주시 애월읍 소길남길 34-37","telNo":"064)000-0000","bizType":"1299","bizTypeNm":"신변잡화","bizTypeDetail":"기타 신변잡화","salesCd":"165"}},{"type":"Feature","geometry":{"type":"Point","coordinates":[126.489138,33.481144]},"properties":{"seq":2958055,"regDate":1584156668083,"simpleNm":"Siena시에나","zipCd":"63138","addr":"제주 제주시 과원북4길 71","telNo":"064)711-6835","bizType":"1004","bizTypeNm":"의류","bizTypeDetail":"기성복점","salesCd":"145"}},{"type":"Feature","geometry":{"type":"Point","coordinates":[0,0]},"properties":{"seq":146033,"regDate":1584137830945,"simpleNm":"TBJ제주점","zipCd":"690780","addr":"제주 제주시 일도1동","telNo":"064)722-9424","bizType":"1099","bizTypeNm":"의류","bizTypeDetail":"기타 의류","salesCd":"145"}},{"type":"Feature","geometry":{"type":"Point","coordinates":[0,0]},"properties":{"seq":886269,"regDate":1584142965178,"simpleNm":"THE IN","zipCd":"690011","addr":"제주 제주시 일도1동","telNo":"064)725-7363","bizType":"1099","bizTypeNm":"의류","bizTypeDetail":"기타 의류","salesCd":"145"}},{"type":"Feature","geometry":{"type":"Point","coordinates":[126.469792,33.48387]},"properties":{"seq":3848651,"regDate":1588716184606,"simpleNm":"TIFFANY","zipCd":"63103","addr":"제주 제주시 수덕로 79","telNo":"02)1111-1111","bizType":"1004","bizTypeNm":"의류","bizTypeDetail":"기성복점","salesCd":"145"}},{"type":"Feature","geometry":{"type":"Point","coordinates":[126.526646,33.514617]},"properties":{"seq":983708,"regDate":1584143652153,"simpleNm":"TRIPLE","zipCd":"63277","addr":"제주 제주시 관덕로15길 15","telNo":"064)751-5545","bizType":"1099","bizTypeNm":"의류","bizTypeDetail":"기타 의류","salesCd":"166"}},{"type":"Feature","geometry":{"type":"Point","coordinates":[126.528599,33.498861]},"properties":{"seq":2890889,"regDate":1584156236000,"simpleNm":"URBANE (어베인)","zipCd":"63207","addr":"제주 제주시 광양10길 14","telNo":"064)000-0000","bizType":"1004","bizTypeNm":"의류","bizTypeDetail":"기성복점","salesCd":"145"}},{"type":"Feature","geometry":{"type":"Point","coordinates":[126.541691,33.490797]},"properties":{"seq":4426690,"regDate":1630447728119,"simpleNm":"W","zipCd":"63230","addr":"제주 제주시 남광로2길 39-27","telNo":"02)1111-1111","bizType":"1004","bizTypeNm":"의류","bizTypeDetail":"기성복점","salesCd":"145"}},{"type":"Feature","geometry":{"type":"Point","coordinates":[126.492203,33.47937]},"properties":{"seq":857437,"regDate":1584142760413,"simpleNm":"WOOSCOLLECTION","zipCd":"63139","addr":"제주 제주시 국기로 17","telNo":"064)747-6411","bizType":"1099","bizTypeNm":"의류","bizTypeDetail":"기타 의류","salesCd":"145"}},{"type":"Feature","geometry":{"type":"Point","coordinates":[126.528804,33.496328]},"properties":{"seq":481150,"regDate":1584140139502,"simpleNm":"Yoon`s(윤스)손뜨개","zipCd":"63200","addr":"제주 제주시 신성로 91","telNo":"064)722-2286","bizType":"1104","bizTypeNm":"직물/침구류","bizTypeDetail":"수예점","salesCd":"145"}},{"type":"Feature","geometry":{"type":"Point","coordinates":[126.566541,33.248455]},"properties":{"seq":335282,"regDate":1584139149978,"simpleNm":"Z.O.O.C","zipCd":"63595","addr":"제주 서귀포시 서귀동","telNo":"064)762-0327","bizType":"1004","bizTypeNm":"의류","bizTypeDetail":"기성복점","salesCd":"145"}},{"type":"Feature","geometry":{"type":"Point","coordinates":[126.30848,33.22925]},"properties":{"seq":3292560,"regDate":1584158858644,"simpleNm":"ZEN","zipCd":"63528","addr":"제주 서귀포시 안덕면 사계남로 186-8","telNo":"064)794-0188","bizType":"1299","bizTypeNm":"신변잡화","bizTypeDetail":"기타 신변잡화","salesCd":"166"}},{"type":"Feature","geometry":{"type":"Point","coordinates":[126.30848,33.22925]},"properties":{"seq":3276705,"regDate":1584158751150,"simpleNm":"ZEN","zipCd":"63528","addr":"제주 서귀포시 안덕면 사계남로 186-8","telNo":"064)794-0133","bizType":"1004","bizTypeNm":"의류","bizTypeDetail":"기성복점","salesCd":"166"}},{"type":"Feature","geometry":{"type":"Point","coordinates":[126.529176,33.500233]},"properties":{"seq":2371779,"regDate":1584152998163,"simpleNm":"eccom","zipCd":"63207","addr":"제주 제주시 중앙로 214","telNo":"064)721-3166","bizType":"1201","bizTypeNm":"신변잡화","bizTypeDetail":"악세사리점","salesCd":"145"}},{"type":"Feature","geometry":{"type":"Point","coordinates":[126.476993,33.4868]},"properties":{"seq":1453122,"regDate":1584147032680,"simpleNm":"hoohoo","zipCd":"63099","addr":"제주 제주시 수덕5길 7","telNo":"064)796-1181","bizType":"1004","bizTypeNm":"의류","bizTypeDetail":"기성복점","salesCd":"145"}},{"type":"Feature","geometry":{"type":"Point","coordinates":[126.52398,33.513635]},"properties":{"seq":2598877,"regDate":1584154388914,"simpleNm":"ibiza (이비자)","zipCd":"63166","addr":"제주 제주시 칠성로길 8-1","telNo":"064)757-6302","bizType":"1004","bizTypeNm":"의류","bizTypeDetail":"기성복점","salesCd":"145"}},{"type":"Feature","geometry":{"type":"Point","coordinates":[126.528668,33.499407]},"properties":{"seq":2882844,"regDate":1584156186733,"simpleNm":"j.bin jeju(제이빈제주)","zipCd":"63207","addr":"제주 제주시 서광로32길 13","telNo":"064)000-0000","bizType":"1207","bizTypeNm":"신변잡화","bizTypeDetail":"일반신발점","salesCd":"145"}},{"type":"Feature","geometry":{"type":"Point","coordinates":[126.493081,33.485552]},"properties":{"seq":4399266,"regDate":1628114835376,"simpleNm":"mine Gold and Silver","zipCd":"63133","addr":"제주 제주시 노연로 118-1","telNo":"064)747-3197","bizType":"1201","bizTypeNm":"신변잡화","bizTypeDetail":"악세사리점","salesCd":"145"}},{"type":"Feature","geometry":{"type":"Point","coordinates":[126.524366,33.51303]},"properties":{"seq":2613773,"regDate":1584154481747,"simpleNm":"the in","zipCd":"63168","addr":"제주 제주시 중앙로 지하 60","telNo":"064)725-7363","bizType":"1004","bizTypeNm":"의류","bizTypeDetail":"기성복점","salesCd":"145"}},{"type":"Feature","geometry":{"type":"Point","coordinates":[126.487389,33.487412]},"properties":{"seq":3996422,"regDate":1598393701536,"simpleNm":"theBLOG","zipCd":"63131","addr":"제주 제주시 제원3길 19","telNo":"02)1111-1111","bizType":"1004","bizTypeNm":"의류","bizTypeDetail":"기성복점","salesCd":"145"}},{"type":"Feature","geometry":{"type":"Point","coordinates":[126.561282,33.250338]},"properties":{"seq":1280256,"regDate":1584145828481,"simpleNm":"who's who","zipCd":"63592","addr":"제주 서귀포시 중앙로 63","telNo":"064)762-0323","bizType":"1004","bizTypeNm":"의류","bizTypeDetail":"기성복점","salesCd":"145"}},{"type":"Feature","geometry":{"type":"Point","coordinates":[126.589976,33.283728]},"properties":{"seq":3548116,"regDate":1584160549293,"simpleNm":"가내수공예","zipCd":"63582","addr":"제주 서귀포시 516로 351","telNo":"064)000-0000","bizType":"1201","bizTypeNm":"신변잡화","bizTypeDetail":"악세사리점","salesCd":"145"}},{"type":"Feature","geometry":{"type":"Point","coordinates":[0,0]},"properties":{"seq":55092,"regDate":1584137192123,"simpleNm":"가디너","zipCd":"690011","addr":"제주 제주시 일도1동","telNo":"064)757-9514","bizType":"1004","bizTypeNm":"의류","bizTypeDetail":"기성복점","salesCd":"145"}},{"type":"Feature","geometry":{"type":"Point","coordinates":[126.904357,33.49514]},"properties":{"seq":4427777,"regDate":1630534195024,"simpleNm":"가르송필레","zipCd":"63364","addr":"제주 제주시 구좌읍 종달로1길 85","telNo":"064)111-1111","bizType":"1004","bizTypeNm":"의류","bizTypeDetail":"기성복점","salesCd":"145"}},{"type":"Feature","geometry":{"type":"Point","coordinates":[126.540638,33.476899]},"properties":{"seq":4745385,"regDate":1655417418403,"simpleNm":"가림","zipCd":"63237","addr":"제주 제주시 아란2길 4","telNo":"064)000-0000","bizType":"1299","bizTypeNm":"신변잡화","bizTypeDetail":"기타 신변잡화","salesCd":"145"}},{"type":"Feature","geometry":{"type":"Point","coordinates":[126.622748,33.53491]},"properties":{"seq":3891225,"regDate":1591135299518,"simpleNm":"가완옷집","zipCd":"63337","addr":"제주 제주시 조천읍 신북로 86","telNo":"064)111-1111","bizType":"1004","bizTypeNm":"의류","bizTypeDetail":"기성복점","salesCd":"145"}},{"type":"Feature","geometry":{"type":"Point","coordinates":[126.475015,33.487816]},"properties":{"seq":4442154,"regDate":1631657274705,"simpleNm":"가죽공방 정성","zipCd":"63099","addr":"제주 제주시 수덕로 13","telNo":"070)7424-6201","bizType":"1205","bizTypeNm":"신변잡화","bizTypeDetail":"가방점","salesCd":"145"}},{"type":"Feature","geometry":{"type":"Point","coordinates":[126.503772,33.252699]},"properties":{"seq":4213398,"regDate":1615414092333,"simpleNm":"간지","zipCd":"63559","addr":"제주 서귀포시 대청로 37","telNo":"064)739-9552","bizType":"1004","bizTypeNm":"의류","bizTypeDetail":"기성복점","salesCd":"145"}},{"type":"Feature","geometry":{"type":"Point","coordinates":[126.801137,33.387027]},"properties":{"seq":174632,"regDate":1584138026615,"simpleNm":"갈옷들","zipCd":"63624","addr":"제주 서귀포시 표선면 성읍정의현로 49","telNo":"064)787-1836","bizType":"1004","bizTypeNm":"의류","bizTypeDetail":"기성복점","salesCd":"145"}},{"type":"Feature","geometry":{"type":"Point","coordinates":[126.531059,33.512957]},"properties":{"seq":795125,"regDate":1584142315494,"simpleNm":"갈옷촌","zipCd":"63264","addr":"제주 제주시 동문로 42","telNo":"064)723-1894","bizType":"1101","bizTypeNm":"직물/침구류","bizTypeDetail":"옷감판매점","salesCd":"145"}},{"type":"Feature","geometry":{"type":"Point","coordinates":[126.540632,33.490261]},"properties":{"seq":2121165,"regDate":1584151457524,"simpleNm":"감","zipCd":"63230","addr":"제주 제주시 구남동5길 22","telNo":"064)755-5647","bizType":"1004","bizTypeNm":"의류","bizTypeDetail":"기성복점","salesCd":"145"}},{"type":"Feature","geometry":{"type":"Point","coordinates":[126.48732,33.469377]},"properties":{"seq":282640,"regDate":1584138785129,"simpleNm":"감마을","zipCd":"63141","addr":"제주 제주시 수목원길 23","telNo":"064)711-1766","bizType":"1099","bizTypeNm":"의류","bizTypeDetail":"기타 의류","salesCd":"145"}},{"type":"Feature","geometry":{"type":"Point","coordinates":[126.490667,33.488515]},"properties":{"seq":1130702,"regDate":1584144764814,"simpleNm":"감빛갤러리","zipCd":"63124","addr":"제주 제주시 연동7길 16","telNo":"064)747-8872","bizType":"1099","bizTypeNm":"의류","bizTypeDetail":"기타 의류","salesCd":"145"}},{"type":"Feature","geometry":{"type":"Point","coordinates":[126.289499,33.206828]},"properties":{"seq":3797241,"regDate":1584482609999,"simpleNm":"감성점빵","zipCd":"63513","addr":"제주 서귀포시 대정읍 형제해안로 322-1","telNo":"064)792-1463","bizType":"1299","bizTypeNm":"신변잡화","bizTypeDetail":"기타 신변잡화","salesCd":"145"}},{"type":"Feature","geometry":{"type":"Point","coordinates":[126.264086,33.416157]},"properties":{"seq":1016618,"regDate":1584143901526,"simpleNm":"강구동옷집","zipCd":"63031","addr":"제주 제주시 한림읍 한림북동길 11","telNo":"064)796-1888","bizType":"1099","bizTypeNm":"의류","bizTypeDetail":"기타 의류","salesCd":"145"}},{"type":"Feature","geometry":{"type":"Point","coordinates":[126.561501,33.252879]},"properties":{"seq":3380301,"regDate":1584159435372,"simpleNm":"강남쇼핑","zipCd":"63590","addr":"제주 서귀포시 중앙로 92","telNo":"064)000-0000","bizType":"1004","bizTypeNm":"의류","bizTypeDetail":"기성복점","salesCd":"145"}},{"type":"Feature","geometry":{"type":"Point","coordinates":[126.519391,33.493647]},"properties":{"seq":3972868,"regDate":1596595134431,"simpleNm":"강남한복대여맞춤","zipCd":"63191","addr":"제주 제주시 오남로 20","telNo":"064)752-8899","bizType":"1003","bizTypeNm":"의류","bizTypeDetail":"한복점","salesCd":"145"}},{"type":"Feature","geometry":{"type":"Point","coordinates":[126.482099,33.231714]},"properties":{"seq":3702190,"regDate":1584161556207,"simpleNm":"강정해군 필승사 (군장점)","zipCd":"63563","addr":"제주 서귀포시 이어도로 640","telNo":"064)111-1111","bizType":"1201","bizTypeNm":"신변잡화","bizTypeDetail":"악세사리점","salesCd":"145"}},{"type":"Feature","geometry":{"type":"Point","coordinates":[126.696073,33.312597]},"properties":{"seq":3440898,"regDate":1584159838878,"simpleNm":"갖장이의작업실","zipCd":"63614","addr":"제주 서귀포시 남원읍 한신로 29-2","telNo":"064)733-9999","bizType":"1010","bizTypeNm":"의류","bizTypeDetail":"양품점","salesCd":"145"}},{"type":"Feature","geometry":{"type":"Point","coordinates":[126.540888,33.506766]},"properties":{"seq":194121,"regDate":1584138162866,"simpleNm":"개성연출","zipCd":"63254","addr":"제주 제주시 고마로15길 2","telNo":"064)726-8088","bizType":"1004","bizTypeNm":"의류","bizTypeDetail":"기성복점","salesCd":"145"}},{"type":"Feature","geometry":{"type":"Point","coordinates":[126.561485,33.249195]},"properties":{"seq":42925,"regDate":1584137110163,"simpleNm":"갤러리","zipCd":"63592","addr":"제주 서귀포시 중앙로 51-1","telNo":"064)763-3827","bizType":"1004","bizTypeNm":"의류","bizTypeDetail":"기성복점","salesCd":"145"}},{"type":"Feature","geometry":{"type":"Point","coordinates":[126.492508,33.487403]},"properties":{"seq":3847360,"regDate":1588543380150,"simpleNm":"갤러리","zipCd":"63123","addr":"제주 제주시 은남3길 32","telNo":"064)747-1292","bizType":"1004","bizTypeNm":"의류","bizTypeDetail":"기성복점","salesCd":"145"}},{"type":"Feature","geometry":{"type":"Point","coordinates":[126.432167,33.493723]},"properties":{"seq":2110663,"regDate":1584151393698,"simpleNm":"갤러리","zipCd":"63068","addr":"제주 제주시 일주서로 7353","telNo":"064)745-0680","bizType":"1299","bizTypeNm":"신변잡화","bizTypeDetail":"기타 신변잡화","salesCd":"145"}},{"type":"Feature","geometry":{"type":"Point","coordinates":[126.252708,33.221613]},"properties":{"seq":1100262,"regDate":1584144541886,"simpleNm":"갤러리아","zipCd":"63508","addr":"제주 서귀포시 대정읍 하모상가로 35-2","telNo":"064)794-1228","bizType":"1207","bizTypeNm":"신변잡화","bizTypeDetail":"일반신발점","salesCd":"145"}},{"type":"Feature","geometry":{"type":"Point","coordinates":[0,0]},"properties":{"seq":53485,"regDate":1584137179785,"simpleNm":"거북사","zipCd":"63595","addr":"제주 서귀포시 서귀동","telNo":"064)763-1128","bizType":"1203","bizTypeNm":"신변잡화","bizTypeDetail":"시계전문점","salesCd":"145"}},{"type":"Feature","geometry":{"type":"Point","coordinates":[126.520645,33.517474]},"properties":{"seq":577407,"regDate":1584140799120,"simpleNm":"게스제주점","zipCd":"63277","addr":"제주 제주시 중앙로 39","telNo":"064)724-6300","bizType":"1099","bizTypeNm":"의류","bizTypeDetail":"기타 의류","salesCd":"165"}},{"type":"Feature","geometry":{"type":"Point","coordinates":[126.52451,33.512775]},"properties":{"seq":1539097,"regDate":1584147616572,"simpleNm":"게스제주중앙점","zipCd":"63168","addr":"제주 제주시 중앙로 60","telNo":"064)757-6130","bizType":"1008","bizTypeNm":"의류","bizTypeDetail":"내의판매점","salesCd":"145"}},{"type":"Feature","geometry":{"type":"Point","coordinates":[0,0]},"properties":{"seq":918018,"regDate":1584143178362,"simpleNm":"게스트","zipCd":"690780","addr":"제주 제주시 일도1동","telNo":"064)721-6367","bizType":"1099","bizTypeNm":"의류","bizTypeDetail":"기타 의류","salesCd":"145"}},{"type":"Feature","geometry":{"type":"Point","coordinates":[0,0]},"properties":{"seq":1536929,"regDate":1584147601182,"simpleNm":"경동상회","zipCd":"690835","addr":"제주 제주시 일도1동","telNo":"064)722-6540","bizType":"1102","bizTypeNm":"직물/침구류","bizTypeDetail":"침구,커튼,카펫트점","salesCd":"145"}},{"type":"Feature","geometry":{"type":"Point","coordinates":[126.536777,33.51252]},"properties":{"seq":3430020,"regDate":1584159768544,"simpleNm":"경미한복","zipCd":"63264","addr":"제주 제주시 동문로 16","telNo":"064)758-0307","bizType":"1003","bizTypeNm":"의류","bizTypeDetail":"한복점","salesCd":"145"}},{"type":"Feature","geometry":{"type":"Point","coordinates":[126.531621,33.504303]},"properties":{"seq":2652716,"regDate":1584154732230,"simpleNm":"경민패션","zipCd":"63196","addr":"제주 제주시 동광로 27","telNo":"064)752-4390","bizType":"1004","bizTypeNm":"의류","bizTypeDetail":"기성복점","salesCd":"145"}},{"type":"Feature","geometry":{"type":"Point","coordinates":[126.526881,33.511931]},"properties":{"seq":1170917,"regDate":1584145049861,"simpleNm":"경하상회","zipCd":"63264","addr":"제주 제주시 동문로4길 21","telNo":"064)722-6860","bizType":"1099","bizTypeNm":"의류","bizTypeDetail":"기타 의류","salesCd":"145"}},{"type":"Feature","geometry":{"type":"Point","coordinates":[126.622617,33.252879]},"properties":{"seq":4807374,"regDate":1659494951596,"simpleNm":"고득고득","zipCd":"63600","addr":"제주 서귀포시 쇠소깍로 118","telNo":"064)111-1111","bizType":"1299","bizTypeNm":"신변잡화","bizTypeDetail":"기타 신변잡화","salesCd":"000"}},{"type":"Feature","geometry":{"type":"Point","coordinates":[126.833055,33.325957]},"properties":{"seq":364188,"regDate":1584139340264,"simpleNm":"고와라","zipCd":"63629","addr":"제주 서귀포시 표선면","telNo":"064)87-0009","bizType":"1099","bizTypeNm":"의류","bizTypeDetail":"기타 의류","salesCd":"145"}},{"type":"Feature","geometry":{"type":"Point","coordinates":[126.298679,33.226752]},"properties":{"seq":3775151,"regDate":1584162049712,"simpleNm":"고요소요","zipCd":"63528","addr":"제주 서귀포시 안덕면 사계남로 80","telNo":null,"bizType":"1201","bizTypeNm":"신변잡화","bizTypeDetail":"악세사리점","salesCd":"145"}},{"type":"Feature","geometry":{"type":"Point","coordinates":[126.524366,33.51303]},"properties":{"seq":2208445,"regDate":1584151992181,"simpleNm":"고운양말","zipCd":"63168","addr":"제주 제주시 중앙로 지하 60","telNo":"070)8900-0968","bizType":"1008","bizTypeNm":"의류","bizTypeDetail":"내의판매점","salesCd":"145"}},{"type":"Feature","geometry":{"type":"Point","coordinates":[126.49118,33.488693]},"properties":{"seq":651867,"regDate":1584141312331,"simpleNm":"고운우리옷","zipCd":"63124","addr":"제주 제주시 연동","telNo":"064)744-8618","bizType":"1099","bizTypeNm":"의류","bizTypeDetail":"기타 의류","salesCd":"145"}},{"type":"Feature","geometry":{"type":"Point","coordinates":[126.52835,33.50286]},"properties":{"seq":4252576,"regDate":1618006606871,"simpleNm":"고울레라","zipCd":"63197","addr":"제주 제주시 동광로1길 25","telNo":"02)1111-1111","bizType":"1004","bizTypeNm":"의류","bizTypeDetail":"기성복점","salesCd":"145"}},{"type":"Feature","geometry":{"type":"Point","coordinates":[126.567995,33.251935]},"properties":{"seq":3543584,"regDate":1584160520047,"simpleNm":"고은한복","zipCd":"63589","addr":"제주 서귀포시 문부로 2","telNo":"064)732-2240","bizType":"1003","bizTypeNm":"의류","bizTypeDetail":"한복점","salesCd":"145"}},{"type":"Feature","geometry":{"type":"Point","coordinates":[126.565414,33.248933]},"properties":{"seq":651287,"regDate":1584141308713,"simpleNm":"고흥상회","zipCd":"63591","addr":"제주 서귀포시 서귀동","telNo":"064)762-8518","bizType":"1004","bizTypeNm":"의류","bizTypeDetail":"기성복점","salesCd":"145"}},{"type":"Feature","geometry":{"type":"Point","coordinates":[0,0]},"properties":{"seq":820122,"regDate":1584142499333,"simpleNm":"골덴라사","zipCd":"690809","addr":"제주 제주시 삼도2동","telNo":"064)722-3679","bizType":"1001","bizTypeNm":"의류","bizTypeDetail":"맞춤복점","salesCd":"145"}},{"type":"Feature","geometry":{"type":"Point","coordinates":[126.52534,33.514253]},"properties":{"seq":422175,"regDate":1584139736198,"simpleNm":"골드마인드제주점","zipCd":"63277","addr":"제주 제주시 칠성로길 24","telNo":"064)725-1418","bizType":"1201","bizTypeNm":"신변잡화","bizTypeDetail":"악세사리점","salesCd":"145"}},{"type":"Feature","geometry":{"type":"Point","coordinates":[126.566145,33.523085]},"properties":{"seq":4749029,"regDate":1655504180764,"simpleNm":"곱따","zipCd":"63290","addr":"제주 제주시 진남로8길 49","telNo":"064)111-1111","bizType":"1010","bizTypeNm":"의류","bizTypeDetail":"양품점","salesCd":"145"}},{"type":"Feature","geometry":{"type":"Point","coordinates":[126.49118,33.488693]},"properties":{"seq":1481991,"regDate":1584147231379,"simpleNm":"공주","zipCd":"63124","addr":"제주 제주시 신대로12길 51","telNo":"064)746-6472","bizType":"1004","bizTypeNm":"의류","bizTypeDetail":"기성복점","salesCd":"145"}},{"type":"Feature","geometry":{"type":"Point","coordinates":[126.497069,33.48775]},"properties":{"seq":417211,"regDate":1584139701180,"simpleNm":"공주이불","zipCd":"690170","addr":"제주 제주시 연동","telNo":"064)748-7979","bizType":"1102","bizTypeNm":"직물/침구류","bizTypeDetail":"침구,커튼,카펫트점","salesCd":"145"}},{"type":"Feature","geometry":{"type":"Point","coordinates":[0,0]},"properties":{"seq":49670,"regDate":1584137152424,"simpleNm":"광양보석","zipCd":"690022","addr":"제주 제주시 이도2동","telNo":"064)757-7763","bizType":"1203","bizTypeNm":"신변잡화","bizTypeDetail":"시계전문점","salesCd":"145"}},{"type":"Feature","geometry":{"type":"Point","coordinates":[126.565414,33.248933]},"properties":{"seq":1288841,"regDate":1584145887428,"simpleNm":"광주상회","zipCd":"63591","addr":"제주 서귀포시 중앙로42번길 36","telNo":"064)762-5400","bizType":"1004","bizTypeNm":"의류","bizTypeDetail":"기성복점","salesCd":"145"}},{"type":"Feature","geometry":{"type":"Point","coordinates":[126.710539,33.466877]},"properties":{"seq":3961128,"regDate":1595628945587,"simpleNm":"구라파 의상","zipCd":"63341","addr":"제주 제주시 조천읍 선교로 437","telNo":"02)1577-0000","bizType":"1099","bizTypeNm":"의류","bizTypeDetail":"기타 의류","salesCd":"145"}},{"type":"Feature","geometry":{"type":"Point","coordinates":[126.430766,33.488215]},"properties":{"seq":3141735,"regDate":1584157848139,"simpleNm":"구룸(9-Room)","zipCd":"63069","addr":"제주 제주시 우정로 52","telNo":"064)000-0000","bizType":"1004","bizTypeNm":"의류","bizTypeDetail":"기성복점","salesCd":"145"}},{"type":"Feature","geometry":{"type":"Point","coordinates":[0,0]},"properties":{"seq":512179,"regDate":1584140351115,"simpleNm":"구슬주머니","zipCd":"690836","addr":"제주 제주시 일도1동","telNo":"064)759-7112","bizType":"1201","bizTypeNm":"신변잡화","bizTypeDetail":"악세사리점","salesCd":"145"}},{"type":"Feature","geometry":{"type":"Point","coordinates":[126.5352,33.513884]},"properties":{"seq":2937239,"regDate":1584156533219,"simpleNm":"구제. 주","zipCd":"63279","addr":"제주 제주시 동문로 79-1","telNo":"064)723-8289","bizType":"1004","bizTypeNm":"의류","bizTypeDetail":"기성복점","salesCd":"145"}},{"type":"Feature","geometry":{"type":"Point","coordinates":[126.527661,33.502983]},"properties":{"seq":4240146,"regDate":1617228586680,"simpleNm":"구제바라기","zipCd":"63197","addr":"제주 제주시 중앙로 181-1","telNo":"064)000-0000","bizType":"1099","bizTypeNm":"의류","bizTypeDetail":"기타 의류","salesCd":"145"}},{"type":"Feature","geometry":{"type":"Point","coordinates":[126.523896,33.508274]},"properties":{"seq":3802975,"regDate":1585000846836,"simpleNm":"구제아울렛","zipCd":"63170","addr":"제주 제주시 중앙로 114","telNo":"064)000-0000","bizType":"1099","bizTypeNm":"의류","bizTypeDetail":"기타 의류","salesCd":"145"}},{"type":"Feature","geometry":{"type":"Point","coordinates":[126.523673,33.510346]},"properties":{"seq":4009339,"regDate":1599171018907,"simpleNm":"구제의신세계","zipCd":"63169","addr":"제주 제주시 중앙로 90","telNo":"064)000-0000","bizType":"1099","bizTypeNm":"의류","bizTypeDetail":"기타 의류","salesCd":"145"}},{"type":"Feature","geometry":{"type":"Point","coordinates":[126.566287,33.249365]},"properties":{"seq":2520562,"regDate":1584153903044,"simpleNm":"구제이야기","zipCd":"63591","addr":"제주 서귀포시 중앙로42번길 46","telNo":"064)762-2988","bizType":"1004","bizTypeNm":"의류","bizTypeDetail":"기성복점","salesCd":"145"}},{"type":"Feature","geometry":{"type":"Point","coordinates":[126.527254,33.51426]},"properties":{"seq":3115464,"regDate":1584157680147,"simpleNm":"구제창고","zipCd":"63277","addr":"제주 제주시 칠성로길 42-1","telNo":"064)757-3305","bizType":"1004","bizTypeNm":"의류","bizTypeDetail":"기성복점","salesCd":"145"}},{"type":"Feature","geometry":{"type":"Point","coordinates":[0,0]},"properties":{"seq":228805,"regDate":1584138410791,"simpleNm":"국희네","zipCd":"690011","addr":"제주 제주시 일도1동","telNo":"064)752-3930","bizType":"1004","bizTypeNm":"의류","bizTypeDetail":"기성복점","salesCd":"145"}},{"type":"Feature","geometry":{"type":"Point","coordinates":[126.664827,33.542283]},"properties":{"seq":3499930,"regDate":1584160236870,"simpleNm":"굿우드무드","zipCd":"63333","addr":"제주 제주시 조천읍 조함해안로 488-5","telNo":"064)783-5561","bizType":"1299","bizTypeNm":"신변잡화","bizTypeDetail":"기타 신변잡화","salesCd":"145"}},{"type":"Feature","geometry":{"type":"Point","coordinates":[126.496791,33.485542]},"properties":{"seq":362581,"regDate":1584139327805,"simpleNm":"귀빈장식","zipCd":"63134","addr":"제주 제주시 연동","telNo":"064)748-1986","bizType":"1102","bizTypeNm":"직물/침구류","bizTypeDetail":"침구,커튼,카펫트점","salesCd":"145"}},{"type":"Feature","geometry":{"type":"Point","coordinates":[126.487583,33.482765]},"properties":{"seq":3853335,"regDate":1588888879862,"simpleNm":"그란데 모다 코리아(Grande moda korea)","zipCd":"63137","addr":"제주 제주시 연동4길 36","telNo":"064)755-6617","bizType":"1004","bizTypeNm":"의류","bizTypeDetail":"기성복점","salesCd":"145"}},{"type":"Feature","geometry":{"type":"Point","coordinates":[126.33855,33.24806]},"properties":{"seq":3587443,"regDate":1584160806736,"simpleNm":"그런마인드빈티지샵","zipCd":"63530","addr":"제주 서귀포시 안덕면 화순로 67","telNo":"064)0000-0000","bizType":"1299","bizTypeNm":"신변잡화","bizTypeDetail":"기타 신변잡화","salesCd":"145"}},{"type":"Feature","geometry":{"type":"Point","coordinates":[126.434027,33.494215]},"properties":{"seq":3746090,"regDate":1584161854773,"simpleNm":"그럼외도","zipCd":"63068","addr":"제주 제주시 월대3길 16","telNo":"064)0000-0000","bizType":"1201","bizTypeNm":"신변잡화","bizTypeDetail":"악세사리점","salesCd":"145"}},{"type":"Feature","geometry":{"type":"Point","coordinates":[126.587636,33.51721]},"properties":{"seq":1980418,"regDate":1584150600019,"simpleNm":"그레이","zipCd":"63322","addr":"제주 제주시 화삼북로 135","telNo":"070)8221-9384","bizType":"1004","bizTypeNm":"의류","bizTypeDetail":"기성복점","salesCd":"145"}},{"type":"Feature","geometry":{"type":"Point","coordinates":[126.524366,33.51303]},"properties":{"seq":3641401,"regDate":1584161158710,"simpleNm":"그레이","zipCd":"63168","addr":"제주 제주시 중앙로 지하 60","telNo":"064)111-1111","bizType":"1004","bizTypeNm":"의류","bizTypeDetail":"기성복점","salesCd":"145"}},{"type":"Feature","geometry":{"type":"Point","coordinates":[126.527744,33.502382]},"properties":{"seq":1363561,"regDate":1584146416646,"simpleNm":"그레이스","zipCd":"63198","addr":"제주 제주시 중앙로 188","telNo":"064)753-2996","bizType":"1206","bizTypeNm":"신변잡화","bizTypeDetail":"제화점","salesCd":"145"}},{"type":"Feature","geometry":{"type":"Point","coordinates":[126.620547,33.25048]},"properties":{"seq":2012789,"regDate":1584150794650,"simpleNm":"그레이스톤","zipCd":"63600","addr":"제주 서귀포시 쇠소깍로 151-10","telNo":"064)000-0000","bizType":"1201","bizTypeNm":"신변잡화","bizTypeDetail":"악세사리점","salesCd":"145"}},{"type":"Feature","geometry":{"type":"Point","coordinates":[126.542797,33.49129]},"properties":{"seq":4573909,"regDate":1641852476307,"simpleNm":"그레인스토어","zipCd":"63230","addr":"제주 제주시 박성내동길 39","telNo":"064)000-0000","bizType":"1102","bizTypeNm":"직물/침구류","bizTypeDetail":"침구,커튼,카펫트점","salesCd":"145"}},{"type":"Feature","geometry":{"type":"Point","coordinates":[0,0]},"properties":{"seq":459240,"regDate":1584139991299,"simpleNm":"그루터기","zipCd":"690836","addr":"제주 제주시 일도1동","telNo":"064)722-5859","bizType":"1004","bizTypeNm":"의류","bizTypeDetail":"기성복점","salesCd":"145"}},{"type":"Feature","geometry":{"type":"Point","coordinates":[126.49118,33.488693]},"properties":{"seq":4020338,"regDate":1600121139596,"simpleNm":"그리고(grigo)","zipCd":"63124","addr":"제주 제주시 신대로12길 51","telNo":"070)9368-6628","bizType":"1004","bizTypeNm":"의류","bizTypeDetail":"기성복점","salesCd":"145"}},{"type":"Feature","geometry":{"type":"Point","coordinates":[126.182864,33.346472]},"properties":{"seq":4155094,"regDate":1610662032637,"simpleNm":"그린사이공","zipCd":"63002","addr":"제주 제주시 한경면 두신로 38","telNo":"064)773-1377","bizType":"1004","bizTypeNm":"의류","bizTypeDetail":"기성복점","salesCd":"145"}},{"type":"Feature","geometry":{"type":"Point","coordinates":[126.525889,33.512062]},"properties":{"seq":1134343,"regDate":1584144788311,"simpleNm":"그린이불","zipCd":"63192","addr":"제주 제주시 오현길 78-11","telNo":"064)758-7679","bizType":"1102","bizTypeNm":"직물/침구류","bizTypeDetail":"침구,커튼,카펫트점","salesCd":"145"}},{"type":"Feature","geometry":{"type":"Point","coordinates":[126.524366,33.51303]},"properties":{"seq":3794712,"regDate":1584335089748,"simpleNm":"그림같은집","zipCd":"63168","addr":"제주 제주시 중앙로 지하 60","telNo":"064)000-0000","bizType":"1102","bizTypeNm":"직물/침구류","bizTypeDetail":"침구,커튼,카펫트점","salesCd":"145"}},{"type":"Feature","geometry":{"type":"Point","coordinates":[126.304557,33.29066]},"properties":{"seq":4316211,"regDate":1622153321729,"simpleNm":"그림아저씨","zipCd":"63521","addr":"제주 서귀포시 안덕면 서광사수동로19번길 28","telNo":"050)6880-0506","bizType":"1299","bizTypeNm":"신변잡화","bizTypeDetail":"기타 신변잡화","salesCd":"145"}},{"type":"Feature","geometry":{"type":"Point","coordinates":[126.826459,33.352922]},"properties":{"seq":3399128,"regDate":1584159562605,"simpleNm":"그림쟁이몬나니","zipCd":"63627","addr":"제주 서귀포시 표선면 한마음초등로 522","telNo":"070)1111-1111","bizType":"1299","bizTypeNm":"신변잡화","bizTypeDetail":"기타 신변잡화","salesCd":"145"}},{"type":"Feature","geometry":{"type":"Point","coordinates":[126.901007,33.496058]},"properties":{"seq":2719889,"regDate":1584155160340,"simpleNm":"근자씨 가게","zipCd":"63364","addr":"제주 제주시 구좌읍 종달로1길 48-6","telNo":"064)1111-1111","bizType":"1299","bizTypeNm":"신변잡화","bizTypeDetail":"기타 신변잡화","salesCd":"145"}},{"type":"Feature","geometry":{"type":"Point","coordinates":[126.475955,33.489726]},"properties":{"seq":4751456,"regDate":1655764381452,"simpleNm":"글림(gleam)","zipCd":"63096","addr":"제주 제주시 월랑북길 4-16","telNo":"064)0000-0000","bizType":"1201","bizTypeNm":"신변잡화","bizTypeDetail":"악세사리점","salesCd":"145"}},{"type":"Feature","geometry":{"type":"Point","coordinates":[0,0]},"properties":{"seq":41675,"regDate":1584137102447,"simpleNm":"금가락지","zipCd":"690828","addr":"제주 제주시 이도1동","telNo":"064)758-3449","bizType":"1203","bizTypeNm":"신변잡화","bizTypeDetail":"시계전문점","salesCd":"145"}},{"type":"Feature","geometry":{"type":"Point","coordinates":[0,0]},"properties":{"seq":1250642,"regDate":1584145612183,"simpleNm":"금미사","zipCd":"690836","addr":"제주 제주시 일도1동","telNo":"064)722-8346","bizType":"1010","bizTypeNm":"의류","bizTypeDetail":"양품점","salesCd":"145"}},{"type":"Feature","geometry":{"type":"Point","coordinates":[0,0]},"properties":{"seq":269507,"regDate":1584138688189,"simpleNm":"금성한복","zipCd":"690836","addr":"제주 제주시 일도1동","telNo":"064)755-7422","bizType":"1003","bizTypeNm":"의류","bizTypeDetail":"한복점","salesCd":"145"}},{"type":"Feature","geometry":{"type":"Point","coordinates":[126.528091,33.503599]},"properties":{"seq":4785172,"regDate":1657836577448,"simpleNm":"금자상해","zipCd":"63197","addr":"제주 제주시 광양1길 19","telNo":"064)747-8360","bizType":"1004","bizTypeNm":"의류","bizTypeDetail":"기성복점","salesCd":"000"}},{"type":"Feature","geometry":{"type":"Point","coordinates":[126.514947,33.499836]},"properties":{"seq":839435,"regDate":1584142638740,"simpleNm":"금호의류","zipCd":"63188","addr":"제주 제주시 오라일동","telNo":"064)726-0654","bizType":"1099","bizTypeNm":"의류","bizTypeDetail":"기타 의류","salesCd":"145"}},{"type":"Feature","geometry":{"type":"Point","coordinates":[126.524366,33.51303]},"properties":{"seq":1116443,"regDate":1584144663444,"simpleNm":"기라","zipCd":"63168","addr":"제주 제주시 중앙로 지하 60","telNo":"064)722-0908","bizType":"1099","bizTypeNm":"의류","bizTypeDetail":"기타 의류","salesCd":"145"}},{"type":"Feature","geometry":{"type":"Point","coordinates":[126.52677,33.514515]},"properties":{"seq":4075425,"regDate":1604527795056,"simpleNm":"기본(gibon)","zipCd":"63277","addr":"제주 제주시 관덕로15길 14","telNo":"064)000-0000","bizType":"1004","bizTypeNm":"의류","bizTypeDetail":"기성복점","salesCd":"145"}},{"type":"Feature","geometry":{"type":"Point","coordinates":[126.525966,33.508368]},"properties":{"seq":3507669,"regDate":1584160286895,"simpleNm":"기억상점","zipCd":"63194","addr":"제주 제주시 중앙로21길 18","telNo":"02)000-0000","bizType":"1299","bizTypeNm":"신변잡화","bizTypeDetail":"기타 신변잡화","salesCd":"145"}},{"type":"Feature","geometry":{"type":"Point","coordinates":[126.477963,33.481123]},"properties":{"seq":3235464,"regDate":1584158473792,"simpleNm":"김명숙어패럴","zipCd":"63088","addr":"제주 제주시 노형6길 15","telNo":"064)799-6712","bizType":"1004","bizTypeNm":"의류","bizTypeDetail":"기성복점","salesCd":"145"}},{"type":"Feature","geometry":{"type":"Point","coordinates":[126.520521,33.51675]},"properties":{"seq":4547424,"regDate":1639692535268,"simpleNm":"김영주스포츠","zipCd":"63165","addr":"제주 제주시 탑동로 38","telNo":"064)755-0357","bizType":"1207","bizTypeNm":"신변잡화","bizTypeDetail":"일반신발점","salesCd":"145"}},{"type":"Feature","geometry":{"type":"Point","coordinates":[126.802679,33.384611]},"properties":{"seq":4561522,"regDate":1640815627216,"simpleNm":"김진선작업실(재주당)","zipCd":"63624","addr":"제주 서귀포시 표선면 성읍정의현로22번길 15","telNo":"02)000-0000","bizType":"1004","bizTypeNm":"의류","bizTypeDetail":"기성복점","salesCd":"145"}},{"type":"Feature","geometry":{"type":"Point","coordinates":[126.526273,33.512946]},"properties":{"seq":2990334,"regDate":1584156874247,"simpleNm":"김창숙브띠끄","zipCd":"63192","addr":"제주 제주시 관덕로 66","telNo":"070)7770-8648","bizType":"1004","bizTypeNm":"의류","bizTypeDetail":"기성복점","salesCd":"165"}},{"type":"Feature","geometry":{"type":"Point","coordinates":[126.52601,33.513798]},"properties":{"seq":4766319,"regDate":1656633168888,"simpleNm":"까뜨리네트","zipCd":"63277","addr":"제주 제주시 관덕로13길 10","telNo":"064)711-1111","bizType":"1004","bizTypeNm":"의류","bizTypeDetail":"기성복점","salesCd":"145"}},{"type":"Feature","geometry":{"type":"Point","coordinates":[126.58601,33.307161]},"properties":{"seq":4132797,"regDate":1608675036373,"simpleNm":"까르페디엠","zipCd":"63577","addr":"제주 서귀포시 산록남로 2847-37","telNo":"02)000-0000","bizType":"1010","bizTypeNm":"의류","bizTypeDetail":"양품점","salesCd":"145"}},{"type":"Feature","geometry":{"type":"Point","coordinates":[126.49118,33.488693]},"properties":{"seq":1574904,"regDate":1584147873585,"simpleNm":"까만여시","zipCd":"63124","addr":"제주 제주시 신대로12길 51","telNo":"064)747-6067","bizType":"1004","bizTypeNm":"의류","bizTypeDetail":"기성복점","salesCd":"145"}},{"type":"Feature","geometry":{"type":"Point","coordinates":[126.490198,33.488927]},"properties":{"seq":168269,"regDate":1584137984154,"simpleNm":"까망2","zipCd":"63124","addr":"제주 제주시 신광로 35","telNo":"064)748-6248","bizType":"1004","bizTypeNm":"의류","bizTypeDetail":"기성복점","salesCd":"145"}},{"type":"Feature","geometry":{"type":"Point","coordinates":[126.554897,33.255129]},"properties":{"seq":3509933,"regDate":1584160301295,"simpleNm":"까망돌","zipCd":"63583","addr":"제주 서귀포시 서홍로 111","telNo":"064)700-0000","bizType":"1201","bizTypeNm":"신변잡화","bizTypeDetail":"악세사리점","salesCd":"145"}},{"type":"Feature","geometry":{"type":"Point","coordinates":[126.524366,33.51303]},"properties":{"seq":2735378,"regDate":1584155260627,"simpleNm":"까메오","zipCd":"63168","addr":"제주 제주시 중앙로 지하 60","telNo":"064)758-6760","bizType":"1004","bizTypeNm":"의류","bizTypeDetail":"기성복점","salesCd":"145"}},{"type":"Feature","geometry":{"type":"Point","coordinates":[126.534291,33.512984]},"properties":{"seq":2636064,"regDate":1584154626467,"simpleNm":"까미노","zipCd":"63265","addr":"제주 제주시 동문로16길 5","telNo":"064)123-1234","bizType":"1004","bizTypeNm":"의류","bizTypeDetail":"기성복점","salesCd":"145"}},{"type":"Feature","geometry":{"type":"Point","coordinates":[126.524684,33.256742]},"properties":{"seq":4415218,"regDate":1629497559517,"simpleNm":"까미에루루","zipCd":"63569","addr":"제주 서귀포시 막동산로 11","telNo":"02)1111-1111","bizType":"1004","bizTypeNm":"의류","bizTypeDetail":"기성복점","salesCd":"145"}},{"type":"Feature","geometry":{"type":"Point","coordinates":[126.52451,33.512775]},"properties":{"seq":3554796,"regDate":1584160592180,"simpleNm":"까사노블","zipCd":"63168","addr":"제주 제주시 중앙로 60","telNo":"064)711-1111","bizType":"1004","bizTypeNm":"의류","bizTypeDetail":"기성복점","salesCd":"145"}},{"type":"Feature","geometry":{"type":"Point","coordinates":[126.489912,33.488186]},"properties":{"seq":2264051,"regDate":1584152331102,"simpleNm":"까사디메트로시티제주","zipCd":"63129","addr":"제주 제주시 신광로 44-1","telNo":"064)748-1120","bizType":"1004","bizTypeNm":"의류","bizTypeDetail":"기성복점","salesCd":"166"}},{"type":"Feature","geometry":{"type":"Point","coordinates":[126.507373,33.248985]},"properties":{"seq":3535670,"regDate":1584160468310,"simpleNm":"까스텔바작","zipCd":"63560","addr":"제주 서귀포시 월드컵로 8","telNo":"064)739-0750","bizType":"1004","bizTypeNm":"의류","bizTypeDetail":"기성복점","salesCd":"145"}},{"type":"Feature","geometry":{"type":"Point","coordinates":[0,0]},"properties":{"seq":219654,"regDate":1584138348376,"simpleNm":"까치이불","zipCd":"690834","addr":"제주 제주시 일도2동","telNo":"064)755-8948","bizType":"1102","bizTypeNm":"직물/침구류","bizTypeDetail":"침구,커튼,카펫트점","salesCd":"145"}},{"type":"Feature","geometry":{"type":"Point","coordinates":[126.537964,33.505898]},"properties":{"seq":1797576,"regDate":1584149471897,"simpleNm":"깔롱","zipCd":"63273","addr":"제주 제주시 동광로15길 2","telNo":"064)751-7476","bizType":"1004","bizTypeNm":"의류","bizTypeDetail":"기성복점","salesCd":"145"}},{"type":"Feature","geometry":{"type":"Point","coordinates":[126.883537,33.525488]},"properties":{"seq":4574399,"regDate":1641852501405,"simpleNm":"깔롱","zipCd":"63363","addr":"제주 제주시 구좌읍 문주란로1길 82","telNo":"064)111-1111","bizType":"1004","bizTypeNm":"의류","bizTypeDetail":"기성복점","salesCd":"145"}},{"type":"Feature","geometry":{"type":"Point","coordinates":[0,0]},"properties":{"seq":924755,"regDate":1584143226421,"simpleNm":"깜J","zipCd":"690780","addr":"제주 제주시 일도1동","telNo":"064)752-8531","bizType":"1099","bizTypeNm":"의류","bizTypeDetail":"기타 의류","salesCd":"145"}},{"type":"Feature","geometry":{"type":"Point","coordinates":[126.310525,33.233848]},"properties":{"seq":3817832,"regDate":1586124068505,"simpleNm":"꺄르르스튜디오","zipCd":"63528","addr":"제주 서귀포시 안덕면 사계남로216번길 29","telNo":"064)792-3056","bizType":"1299","bizTypeNm":"신변잡화","bizTypeDetail":"기타 신변잡화","salesCd":"145"}},{"type":"Feature","geometry":{"type":"Point","coordinates":[126.528804,33.496328]},"properties":{"seq":921447,"regDate":1584143201244,"simpleNm":"꼬까방","zipCd":"63200","addr":"제주 제주시 도남동","telNo":"064)724-2605","bizType":"1007","bizTypeNm":"의류","bizTypeDetail":"아동 및 유아복점","salesCd":"145"}},{"type":"Feature","geometry":{"type":"Point","coordinates":[126.524366,33.51303]},"properties":{"seq":1658778,"regDate":1584148481893,"simpleNm":"꼴레르","zipCd":"63168","addr":"제주 제주시 중앙로 지하 60","telNo":"064)753-5530","bizType":"1004","bizTypeNm":"의류","bizTypeDetail":"기성복점","salesCd":"145"}},{"type":"Feature","geometry":{"type":"Point","coordinates":[126.475052,33.482143]},"properties":{"seq":2238077,"regDate":1584152172489,"simpleNm":"꽃 그리고 꽃","zipCd":"63088","addr":"제주 제주시 노형4길 6","telNo":"070)4523-5800","bizType":"1004","bizTypeNm":"의류","bizTypeDetail":"기성복점","salesCd":"145"}},{"type":"Feature","geometry":{"type":"Point","coordinates":[126.528804,33.496328]},"properties":{"seq":854733,"regDate":1584142743020,"simpleNm":"꽃단장","zipCd":"63200","addr":"제주 제주시 신성로 91","telNo":"064)721-1105","bizType":"1099","bizTypeNm":"의류","bizTypeDetail":"기타 의류","salesCd":"145"}},{"type":"Feature","geometry":{"type":"Point","coordinates":[126.548578,33.484062]},"properties":{"seq":2897723,"regDate":1584156278568,"simpleNm":"꽃마리 협동조합","zipCd":"63246","addr":"제주 제주시 월두2길 35","telNo":"064)000-0000","bizType":"1299","bizTypeNm":"신변잡화","bizTypeDetail":"기타 신변잡화","salesCd":"145"}},{"type":"Feature","geometry":{"type":"Point","coordinates":[126.6779,33.494735]},"properties":{"seq":2250952,"regDate":1584152250705,"simpleNm":"꾸밈","zipCd":"63342","addr":"제주 제주시 조천읍 함와로 566-29","telNo":"064)782-9131","bizType":"1201","bizTypeNm":"신변잡화","bizTypeDetail":"악세사리점","salesCd":"145"}},{"type":"Feature","geometry":{"type":"Point","coordinates":[126.544934,33.494936]},"properties":{"seq":4132022,"regDate":1608674990137,"simpleNm":"꾸밈홈패션","zipCd":"63227","addr":"제주 제주시 신설로5길 5-18","telNo":"064)723-3627","bizType":"1102","bizTypeNm":"직물/침구류","bizTypeDetail":"침구,커튼,카펫트점","salesCd":"145"}},{"type":"Feature","geometry":{"type":"Point","coordinates":[126.527211,33.500111]},"properties":{"seq":3089804,"regDate":1584157514248,"simpleNm":"꿈","zipCd":"63207","addr":"제주 제주시 서광로 288","telNo":"064)000-0000","bizType":"1004","bizTypeNm":"의류","bizTypeDetail":"기성복점","salesCd":"145"}},{"type":"Feature","geometry":{"type":"Point","coordinates":[126.544374,33.492751]},"properties":{"seq":1143533,"regDate":1584144852118,"simpleNm":"꿈꾸는다락방","zipCd":"63229","addr":"제주 제주시 신설로 40-2","telNo":"064)722-7417","bizType":"1099","bizTypeNm":"의류","bizTypeDetail":"기타 의류","salesCd":"145"}},{"type":"Feature","geometry":{"type":"Point","coordinates":[126.570311,33.258667]},"properties":{"seq":3781596,"regDate":1584162092435,"simpleNm":"끌랑","zipCd":"63588","addr":"제주 서귀포시 동홍서로112번길 4-1","telNo":"064)0000-0000","bizType":"1004","bizTypeNm":"의류","bizTypeDetail":"기성복점","salesCd":"145"}},{"type":"Feature","geometry":{"type":"Point","coordinates":[126.561475,33.250783]},"properties":{"seq":2691458,"regDate":1584154980775,"simpleNm":"끌리네","zipCd":"63591","addr":"제주 서귀포시 중앙로 70","telNo":"064)000-0000","bizType":"1004","bizTypeNm":"의류","bizTypeDetail":"기성복점","salesCd":"145"}},{"type":"Feature","geometry":{"type":"Point","coordinates":[126.57957,33.516302]},"properties":{"seq":2518610,"regDate":1584153891534,"simpleNm":"끼","zipCd":"63323","addr":"제주 제주시 건주로4길 10-3","telNo":"064)756-0940","bizType":"1004","bizTypeNm":"의류","bizTypeDetail":"기성복점","salesCd":"145"}},{"type":"Feature","geometry":{"type":"Point","coordinates":[126.524366,33.51303]},"properties":{"seq":98151,"regDate":1584137508176,"simpleNm":"나나","zipCd":"63168","addr":"제주 제주시 중앙로 지하 60","telNo":"064)721-7540","bizType":"1004","bizTypeNm":"의류","bizTypeDetail":"기성복점","salesCd":"145"}},{"type":"Feature","geometry":{"type":"Point","coordinates":[126.485776,33.485862]},"properties":{"seq":1485667,"regDate":1584147261399,"simpleNm":"나나NaNa","zipCd":"63082","addr":"제주 제주시 노연로 54","telNo":"064)744-3009","bizType":"1201","bizTypeNm":"신변잡화","bizTypeDetail":"악세사리점","salesCd":"145"}},{"type":"Feature","geometry":{"type":"Point","coordinates":[126.549539,33.474057]},"properties":{"seq":3207376,"regDate":1584158284522,"simpleNm":"나나옷장","zipCd":"63248","addr":"제주 제주시 인다11길 19","telNo":"064)000-0000","bizType":"1004","bizTypeNm":"의류","bizTypeDetail":"기성복점","salesCd":"145"}},{"type":"Feature","geometry":{"type":"Point","coordinates":[126.529622,33.498849]},"properties":{"seq":3821375,"regDate":1586296912653,"simpleNm":"나다","zipCd":"63207","addr":"제주 제주시 신성로13길 15","telNo":"064)900-0022","bizType":"1004","bizTypeNm":"의류","bizTypeDetail":"기성복점","salesCd":"145"}},{"type":"Feature","geometry":{"type":"Point","coordinates":[126.264855,33.414666]},"properties":{"seq":2138428,"regDate":1584151562872,"simpleNm":"나드리","zipCd":"63029","addr":"제주 제주시 한림읍 한림로 672","telNo":"064)796-0104","bizType":"1099","bizTypeNm":"의류","bizTypeDetail":"기타 의류","salesCd":"145"}},{"type":"Feature","geometry":{"type":"Point","coordinates":[0,0]},"properties":{"seq":81096,"regDate":1584137380383,"simpleNm":"나들이","zipCd":"63591","addr":"제주 서귀포시 서귀동","telNo":"064)733-7336","bizType":"1004","bizTypeNm":"의류","bizTypeDetail":"기성복점","salesCd":"145"}},{"type":"Feature","geometry":{"type":"Point","coordinates":[126.524305,33.511547]},"properties":{"seq":4371122,"regDate":1625875306922,"simpleNm":"나르지오 동문점","zipCd":"63168","addr":"제주 제주시 중앙로 76","telNo":"02)1577-0000","bizType":"1207","bizTypeNm":"신변잡화","bizTypeDetail":"일반신발점","salesCd":"145"}},{"type":"Feature","geometry":{"type":"Point","coordinates":[126.346778,33.449965]},"properties":{"seq":4665825,"regDate":1649282884317,"simpleNm":"나를 위한 하루 민박,나를위한시간 푼티노스","zipCd":"63036","addr":"제주 제주시 애월읍 상가중길 9-4","telNo":"070)0000-0000","bizType":"1004","bizTypeNm":"의류","bizTypeDetail":"기성복점","salesCd":"145"}},{"type":"Feature","geometry":{"type":"Point","coordinates":[0,0]},"properties":{"seq":848852,"regDate":1584142703857,"simpleNm":"나무자전거","zipCd":"690780","addr":"제주 제주시 일도1동","telNo":"064)724-8668","bizType":"1099","bizTypeNm":"의류","bizTypeDetail":"기타 의류","salesCd":"145"}},{"type":"Feature","geometry":{"type":"Point","coordinates":[0,0]},"properties":{"seq":294129,"regDate":1584138862955,"simpleNm":"나미한복","zipCd":"690836","addr":"제주 제주시 일도1동","telNo":"064)758-3100","bizType":"1101","bizTypeNm":"직물/침구류","bizTypeDetail":"옷감판매점","salesCd":"145"}},{"type":"Feature","geometry":{"type":"Point","coordinates":[126.253551,33.221625]},"properties":{"seq":3959904,"regDate":1595542137730,"simpleNm":"나비","zipCd":"63508","addr":"제주 서귀포시 대정읍 하모상가로 44-1","telNo":"064)792-5820","bizType":"1004","bizTypeNm":"의류","bizTypeDetail":"기성복점","salesCd":"145"}},{"type":"Feature","geometry":{"type":"Point","coordinates":[126.479622,33.492046]},"properties":{"seq":4835880,"regDate":1661552150974,"simpleNm":"나이스슈즈","zipCd":"63128","addr":"제주 제주시 남녕로 54","telNo":"064)747-1006","bizType":"1207","bizTypeNm":"신변잡화","bizTypeDetail":"일반신발점","salesCd":"000"}},{"type":"Feature","geometry":{"type":"Point","coordinates":[126.570634,33.249178]},"properties":{"seq":2795969,"regDate":1584155640938,"simpleNm":"날개패션","zipCd":"63589","addr":"제주 서귀포시 태평로 489","telNo":"064)763-5774","bizType":"1004","bizTypeNm":"의류","bizTypeDetail":"기성복점","salesCd":"145"}},{"type":"Feature","geometry":{"type":"Point","coordinates":[126.528804,33.496328]},"properties":{"seq":451454,"regDate":1584139939478,"simpleNm":"남경","zipCd":"63200","addr":"제주 제주시 도남동","telNo":"064)758-3448","bizType":"1004","bizTypeNm":"의류","bizTypeDetail":"기성복점","salesCd":"145"}},{"type":"Feature","geometry":{"type":"Point","coordinates":[126.488818,33.486035]},"properties":{"seq":3418346,"regDate":1584159690121,"simpleNm":"남대문 (MS Multishop)","zipCd":"63131","addr":"제주 제주시 노연로 81","telNo":"064)749-9088","bizType":"1004","bizTypeNm":"의류","bizTypeDetail":"기성복점","salesCd":"145"}},{"type":"Feature","geometry":{"type":"Point","coordinates":[126.830716,33.322015]},"properties":{"seq":579744,"regDate":1584140813535,"simpleNm":"남양철물","zipCd":"63629","addr":"제주 서귀포시 표선면","telNo":"064)787-0233","bizType":"1299","bizTypeNm":"신변잡화","bizTypeDetail":"기타 신변잡화","salesCd":"145"}},{"type":"Feature","geometry":{"type":"Point","coordinates":[126.714975,33.278174]},"properties":{"seq":511371,"regDate":1584140344906,"simpleNm":"남영침구","zipCd":"63621","addr":"제주 서귀포시 남원읍","telNo":"064)764-2304","bizType":"1102","bizTypeNm":"직물/침구류","bizTypeDetail":"침구,커튼,카펫트점","salesCd":"145"}},{"type":"Feature","geometry":{"type":"Point","coordinates":[126.71675,33.278429]},"properties":{"seq":1497857,"regDate":1584147339160,"simpleNm":"남원제일침구","zipCd":"63621","addr":"제주 서귀포시 남원읍 태위로 656","telNo":"064)764-4725","bizType":"1102","bizTypeNm":"직물/침구류","bizTypeDetail":"침구,커튼,카펫트점","salesCd":"145"}},{"type":"Feature","geometry":{"type":"Point","coordinates":[126.253158,33.22093]},"properties":{"seq":1974342,"regDate":1584150563403,"simpleNm":"남이가","zipCd":"63508","addr":"제주 서귀포시 대정읍 신영로 97","telNo":"064)792-0139","bizType":"1004","bizTypeNm":"의류","bizTypeDetail":"기성복점","salesCd":"145"}},{"type":"Feature","geometry":{"type":"Point","coordinates":[126.369642,33.267893]},"properties":{"seq":4423371,"regDate":1630102343999,"simpleNm":"남쪽제비","zipCd":"63532","addr":"제주 서귀포시 안덕면 창천중앙로 62","telNo":"064)0000-0000","bizType":"1004","bizTypeNm":"의류","bizTypeDetail":"기성복점","salesCd":"145"}},{"type":"Feature","geometry":{"type":"Point","coordinates":[126.527168,33.514248]},"properties":{"seq":4392717,"regDate":1627510051117,"simpleNm":"낫 올드 저스트 클래식 (not old just classi","zipCd":"63277","addr":"제주 제주시 칠성로길 42","telNo":"064)000-0000","bizType":"1004","bizTypeNm":"의류","bizTypeDetail":"기성복점","salesCd":"145"}},{"type":"Feature","geometry":{"type":"Point","coordinates":[126.567773,33.246446]},"properties":{"seq":4167508,"regDate":1611698998069,"simpleNm":"낭만 잡화점","zipCd":"63595","addr":"제주 서귀포시 태평로 450","telNo":null,"bizType":"1201","bizTypeNm":"신변잡화","bizTypeDetail":"악세사리점","salesCd":"145"}},{"type":"Feature","geometry":{"type":"Point","coordinates":[126.36506,33.232363]},"properties":{"seq":4699984,"regDate":1651702098042,"simpleNm":"낭만해녀","zipCd":"63533","addr":"제주 서귀포시 안덕면 난드르로 49-50","telNo":"064)000-0000","bizType":"1299","bizTypeNm":"신변잡화","bizTypeDetail":"기타 신변잡화","salesCd":"145"}},{"type":"Feature","geometry":{"type":"Point","coordinates":[126.541282,33.476895]},"properties":{"seq":3072955,"regDate":1584157407537,"simpleNm":"낮잠나무","zipCd":"63237","addr":"제주 제주시 아란3길 5","telNo":"064)758-0037","bizType":"1299","bizTypeNm":"신변잡화","bizTypeDetail":"기타 신변잡화","salesCd":"145"}},{"type":"Feature","geometry":{"type":"Point","coordinates":[126.54427,33.474251]},"properties":{"seq":3046264,"regDate":1584157235947,"simpleNm":"내마음의풍금아라점","zipCd":"63237","addr":"제주 제주시 아란7길 11","telNo":"064)724-7878","bizType":"1004","bizTypeNm":"의류","bizTypeDetail":"기성복점","salesCd":"145"}},{"type":"Feature","geometry":{"type":"Point","coordinates":[126.477693,33.486802]},"properties":{"seq":315229,"regDate":1584139015960,"simpleNm":"낼뭐","zipCd":"63099","addr":"제주 제주시 정존15길 18","telNo":"064)749-5479","bizType":"1007","bizTypeNm":"의류","bizTypeDetail":"아동 및 유아복점","salesCd":"145"}},{"type":"Feature","geometry":{"type":"Point","coordinates":[126.179431,33.30375]},"properties":{"seq":4161109,"regDate":1611180561082,"simpleNm":"너는숲","zipCd":"63008","addr":"제주 제주시 한경면 고산로 29","telNo":"064)000-0000","bizType":"1299","bizTypeNm":"신변잡화","bizTypeDetail":"기타 신변잡화","salesCd":"145"}},{"type":"Feature","geometry":{"type":"Point","coordinates":[126.547875,33.494858]},"properties":{"seq":4404031,"regDate":1628546723108,"simpleNm":"네이처슬립","zipCd":"63229","addr":"제주 제주시 연신로 74","telNo":"064)000-0000","bizType":"1102","bizTypeNm":"직물/침구류","bizTypeDetail":"침구,커튼,카펫트점","salesCd":"145"}},{"type":"Feature","geometry":{"type":"Point","coordinates":[126.52677,33.514515]},"properties":{"seq":4416718,"regDate":1629756333264,"simpleNm":"네트(nett)","zipCd":"63277","addr":"제주 제주시 관덕로15길 14","telNo":"064)000-0000","bizType":"1004","bizTypeNm":"의류","bizTypeDetail":"기성복점","salesCd":"145"}},{"type":"Feature","geometry":{"type":"Point","coordinates":[126.524366,33.51303]},"properties":{"seq":3925627,"regDate":1593208881284,"simpleNm":"노블","zipCd":"63168","addr":"제주 제주시 중앙로 지하 60","telNo":"064)755-1967","bizType":"1004","bizTypeNm":"의류","bizTypeDetail":"기성복점","salesCd":"145"}},{"type":"Feature","geometry":{"type":"Point","coordinates":[0,0]},"properties":{"seq":234589,"regDate":1584138450387,"simpleNm":"노블","zipCd":"690780","addr":"제주 제주시 일도1동","telNo":"064)712-7576","bizType":"1004","bizTypeNm":"의류","bizTypeDetail":"기성복점","salesCd":"145"}},{"type":"Feature","geometry":{"type":"Point","coordinates":[126.528296,33.499922]},"properties":{"seq":3150193,"regDate":1584157902531,"simpleNm":"노워드(No Word)","zipCd":"63207","addr":"제주 제주시 광양8길 12","telNo":"064)111-1111","bizType":"1004","bizTypeNm":"의류","bizTypeDetail":"기성복점","salesCd":"145"}},{"type":"Feature","geometry":{"type":"Point","coordinates":[126.465952,33.48514]},"properties":{"seq":1713112,"regDate":1584148860443,"simpleNm":"노형비너스와코루","zipCd":"63105","addr":"제주 제주시 월광로 44","telNo":"064)744-5789","bizType":"1008","bizTypeNm":"의류","bizTypeDetail":"내의판매점","salesCd":"145"}},{"type":"Feature","geometry":{"type":"Point","coordinates":[126.474352,33.48263]},"properties":{"seq":255243,"regDate":1584138584859,"simpleNm":"노형커텐","zipCd":"63103","addr":"제주 제주시 노형동","telNo":"064)742-9690","bizType":"1102","bizTypeNm":"직물/침구류","bizTypeDetail":"침구,커튼,카펫트점","salesCd":"145"}},{"type":"Feature","geometry":{"type":"Point","coordinates":[126.480807,33.490641]},"properties":{"seq":305275,"regDate":1584138941023,"simpleNm":"누네띠네","zipCd":"63097","addr":"제주 제주시 노형동","telNo":"064)744-8089","bizType":"1007","bizTypeNm":"의류","bizTypeDetail":"아동 및 유아복점","salesCd":"145"}},{"type":"Feature","geometry":{"type":"Point","coordinates":[0,0]},"properties":{"seq":658600,"regDate":1584141356062,"simpleNm":"누네띠네","zipCd":"690836","addr":"제주 제주시 일도1동","telNo":"064)753-8171","bizType":"1004","bizTypeNm":"의류","bizTypeDetail":"기성복점","salesCd":"145"}},{"type":"Feature","geometry":{"type":"Point","coordinates":[126.524907,33.511694]},"properties":{"seq":2562878,"regDate":1584154162579,"simpleNm":"누네띠네","zipCd":"63192","addr":"제주 제주시 중앙로 63-10","telNo":"064)724-3455","bizType":"1004","bizTypeNm":"의류","bizTypeDetail":"기성복점","salesCd":"145"}},{"type":"Feature","geometry":{"type":"Point","coordinates":[126.536777,33.51252]},"properties":{"seq":4101467,"regDate":1606342137311,"simpleNm":"누비나라","zipCd":"63264","addr":"제주 제주시 동문로 16","telNo":"064)726-5243","bizType":"1102","bizTypeNm":"직물/침구류","bizTypeDetail":"침구,커튼,카펫트점","salesCd":"145"}},{"type":"Feature","geometry":{"type":"Point","coordinates":[126.474648,33.489131]},"properties":{"seq":65476,"regDate":1584137264431,"simpleNm":"눈에띄네2","zipCd":"63100","addr":"제주 제주시 달마루길 12","telNo":"070)8787-0809","bizType":"1004","bizTypeNm":"의류","bizTypeDetail":"기성복점","salesCd":"145"}},{"type":"Feature","geometry":{"type":"Point","coordinates":[126.489813,33.48618]},"properties":{"seq":3250674,"regDate":1584158577783,"simpleNm":"뉴에라 신제주점","zipCd":"63131","addr":"제주 제주시 신광로 68","telNo":"064)712-0321","bizType":"1004","bizTypeNm":"의류","bizTypeDetail":"기성복점","salesCd":"145"}},{"type":"Feature","geometry":{"type":"Point","coordinates":[126.543999,33.492474]},"properties":{"seq":2072313,"regDate":1584151158166,"simpleNm":"뉴욕아울렛제주이도점","zipCd":"63229","addr":"제주 제주시 신설로7길 10","telNo":"070)4548-3567","bizType":"1010","bizTypeNm":"의류","bizTypeDetail":"양품점","salesCd":"145"}},{"type":"Feature","geometry":{"type":"Point","coordinates":[0,0]},"properties":{"seq":22181,"regDate":1584136971665,"simpleNm":"뉴화신","zipCd":"690828","addr":"제주 제주시 이도1동","telNo":"064)722-1294","bizType":"1206","bizTypeNm":"신변잡화","bizTypeDetail":"제화점","salesCd":"145"}},{"type":"Feature","geometry":{"type":"Point","coordinates":[0,0]},"properties":{"seq":73509,"regDate":1584137322959,"simpleNm":"늘푸른옷","zipCd":"690011","addr":"제주 제주시 일도1동","telNo":"064)751-0781","bizType":"1004","bizTypeNm":"의류","bizTypeDetail":"기성복점","salesCd":"145"}},{"type":"Feature","geometry":{"type":"Point","coordinates":[126.497069,33.48775]},"properties":{"seq":4282032,"regDate":1619820579552,"simpleNm":"니트앤위빙","zipCd":"63122","addr":"제주 제주시 신대로13길 1","telNo":"064)758-5780","bizType":"1299","bizTypeNm":"신변잡화","bizTypeDetail":"기타 신변잡화","salesCd":"145"}},{"type":"Feature","geometry":{"type":"Point","coordinates":[126.564956,33.248927]},"properties":{"seq":988782,"regDate":1584143692924,"simpleNm":"님프만서귀포대리점","zipCd":"63591","addr":"제주 서귀포시 서귀동","telNo":"064)762-8658","bizType":"1102","bizTypeNm":"직물/침구류","bizTypeDetail":"침구,커튼,카펫트점","salesCd":"145"}},{"type":"Feature","geometry":{"type":"Point","coordinates":[126.53034,33.492842]},"properties":{"seq":1558770,"regDate":1584147759096,"simpleNm":"다나한 한복 앤 러블리베베","zipCd":"63205","addr":"제주 제주시 연삼로 355","telNo":"064)722-0022","bizType":"1003","bizTypeNm":"의류","bizTypeDetail":"한복점","salesCd":"145"}},{"type":"Feature","geometry":{"type":"Point","coordinates":[0,0]},"properties":{"seq":1271042,"regDate":1584145760875,"simpleNm":"다니여노","zipCd":"690022","addr":"제주 제주시 이도2동","telNo":"070)702-9731","bizType":"1004","bizTypeNm":"의류","bizTypeDetail":"기성복점","salesCd":"145"}},{"type":"Feature","geometry":{"type":"Point","coordinates":[126.49118,33.488693]},"properties":{"seq":1980028,"regDate":1584150597850,"simpleNm":"다레모","zipCd":"63124","addr":"제주 제주시 신대로12길 51","telNo":"064)744-5616","bizType":"1004","bizTypeNm":"의류","bizTypeDetail":"기성복점","salesCd":"145"}},{"type":"Feature","geometry":{"type":"Point","coordinates":[0,0]},"properties":{"seq":181466,"regDate":1584138077210,"simpleNm":"다모아","zipCd":"690829","addr":"제주 제주시 이도1동","telNo":"064)758-7276","bizType":"1008","bizTypeNm":"의류","bizTypeDetail":"내의판매점","salesCd":"145"}},{"type":"Feature","geometry":{"type":"Point","coordinates":[126.512908,33.498973]},"properties":{"seq":1746975,"regDate":1584149105882,"simpleNm":"다미","zipCd":"63188","addr":"제주 제주시 서광로2길 13","telNo":"070)4153-1730","bizType":"1004","bizTypeNm":"의류","bizTypeDetail":"기성복점","salesCd":"145"}},{"type":"Feature","geometry":{"type":"Point","coordinates":[126.484987,33.484195]},"properties":{"seq":34032,"regDate":1584137052454,"simpleNm":"다민","zipCd":"63082","addr":"제주 제주시 원노형로 49-1","telNo":"070)8736-1020","bizType":"1004","bizTypeNm":"의류","bizTypeDetail":"기성복점","salesCd":"145"}},{"type":"Feature","geometry":{"type":"Point","coordinates":[126.266895,33.408077]},"properties":{"seq":3267509,"regDate":1584158690304,"simpleNm":"다방면","zipCd":"63028","addr":"제주 제주시 한림읍 한림중앙로 77","telNo":"064)767-4985","bizType":"1299","bizTypeNm":"신변잡화","bizTypeDetail":"기타 신변잡화","salesCd":"145"}},{"type":"Feature","geometry":{"type":"Point","coordinates":[126.587647,33.520198]},"properties":{"seq":1945973,"regDate":1584150393819,"simpleNm":"다사랑이불커텐","zipCd":"63321","addr":"제주 제주시 삼봉로 14","telNo":"064)758-8228","bizType":"1102","bizTypeNm":"직물/침구류","bizTypeDetail":"침구,커튼,카펫트점","salesCd":"145"}},{"type":"Feature","geometry":{"type":"Point","coordinates":[126.519265,33.501464]},"properties":{"seq":3505960,"regDate":1584160276126,"simpleNm":"다시 봄","zipCd":"63183","addr":"제주 제주시 평전길 16","telNo":"064)111-1111","bizType":"1004","bizTypeNm":"의류","bizTypeDetail":"기성복점","salesCd":"145"}},{"type":"Feature","geometry":{"type":"Point","coordinates":[126.571267,33.252027]},"properties":{"seq":1169792,"regDate":1584145041834,"simpleNm":"다영사","zipCd":"63589","addr":"제주 서귀포시 문부로 32","telNo":"064)763-4671","bizType":"1199","bizTypeNm":"직물/침구류","bizTypeDetail":"기타 직물","salesCd":"145"}},{"type":"Feature","geometry":{"type":"Point","coordinates":[126.502651,33.499975]},"properties":{"seq":4367393,"regDate":1625695761069,"simpleNm":"다오미 데일리룩","zipCd":"63164","addr":"제주 제주시 명신3길 5","telNo":"02)1111-1111","bizType":"1004","bizTypeNm":"의류","bizTypeDetail":"기성복점","salesCd":"145"}},{"type":"Feature","geometry":{"type":"Point","coordinates":[126.49118,33.488693]},"properties":{"seq":3591760,"regDate":1584160834086,"simpleNm":"다온","zipCd":"63124","addr":"제주 제주시 신대로12길 51","telNo":"064)748-5425","bizType":"1004","bizTypeNm":"의류","bizTypeDetail":"기성복점","salesCd":"145"}},{"type":"Feature","geometry":{"type":"Point","coordinates":[126.5661,33.248341]},"properties":{"seq":1967299,"regDate":1584150522538,"simpleNm":"다온한복","zipCd":"63595","addr":"제주 서귀포시 태평로431번길 32","telNo":"064)732-6944","bizType":"1003","bizTypeNm":"의류","bizTypeDetail":"한복점","salesCd":"145"}},{"type":"Feature","geometry":{"type":"Point","coordinates":[0,0]},"properties":{"seq":382212,"regDate":1584139462275,"simpleNm":"다와패션","zipCd":"690011","addr":"제주 제주시 일도1동","telNo":"064)752-1646","bizType":"1004","bizTypeNm":"의류","bizTypeDetail":"기성복점","salesCd":"145"}},{"type":"Feature","geometry":{"type":"Point","coordinates":[126.535794,33.510708]},"properties":{"seq":3436465,"regDate":1584159810361,"simpleNm":"다인","zipCd":"63267","addr":"제주 제주시 동문로16길 40","telNo":"064)000-0000","bizType":"1102","bizTypeNm":"직물/침구류","bizTypeDetail":"침구,커튼,카펫트점","salesCd":"145"}},{"type":"Feature","geometry":{"type":"Point","coordinates":[126.534859,33.495826]},"properties":{"seq":2489913,"regDate":1584153716971,"simpleNm":"다채움","zipCd":"63210","addr":"제주 제주시 연삼로 409","telNo":"070)4606-6114","bizType":"1102","bizTypeNm":"직물/침구류","bizTypeDetail":"침구,커튼,카펫트점","salesCd":"145"}},{"type":"Feature","geometry":{"type":"Point","coordinates":[126.637163,33.51944]},"properties":{"seq":3530578,"regDate":1584160435749,"simpleNm":"단다","zipCd":"63335","addr":"제주 제주시 조천읍 신조로 173-8","telNo":"02)0000-0000","bizType":"1004","bizTypeNm":"의류","bizTypeDetail":"기성복점","salesCd":"145"}},{"type":"Feature","geometry":{"type":"Point","coordinates":[126.518466,33.500512]},"properties":{"seq":3397524,"regDate":1584159552457,"simpleNm":"단비","zipCd":"63183","addr":"제주 제주시 평전1길 6","telNo":"064)756-0016","bizType":"1004","bizTypeNm":"의류","bizTypeDetail":"기성복점","salesCd":"145"}},{"type":"Feature","geometry":{"type":"Point","coordinates":[126.523577,33.495832]},"properties":{"seq":4268112,"regDate":1619043094058,"simpleNm":"달달핸디(daldalhandy)","zipCd":"63203","addr":"제주 제주시 신성로4길 7","telNo":null,"bizType":"1205","bizTypeNm":"신변잡화","bizTypeDetail":"가방점","salesCd":"145"}},{"type":"Feature","geometry":{"type":"Point","coordinates":[0,0]},"properties":{"seq":4274142,"regDate":1619475582402,"simpleNm":"달보드레","zipCd":"63233","addr":"제주 제주시 도남로 189","telNo":"064)111-1111","bizType":"1004","bizTypeNm":"의류","bizTypeDetail":"기성복점","salesCd":"145"}},{"type":"Feature","geometry":{"type":"Point","coordinates":[126.567308,33.248706]},"properties":{"seq":2363366,"regDate":1584152946883,"simpleNm":"담쟁이","zipCd":"63591","addr":"제주 서귀포시 중정로 103","telNo":"064)767-1078","bizType":"1004","bizTypeNm":"의류","bizTypeDetail":"기성복점","salesCd":"145"}},{"type":"Feature","geometry":{"type":"Point","coordinates":[126.52738,33.502905]},"properties":{"seq":1440898,"regDate":1584146953516,"simpleNm":"대각","zipCd":"63198","addr":"제주 제주시 중앙로 182","telNo":"064)723-1735","bizType":"1004","bizTypeNm":"의류","bizTypeDetail":"기성복점","salesCd":"145"}},{"type":"Feature","geometry":{"type":"Point","coordinates":[0,0]},"properties":{"seq":395993,"regDate":1584139555882,"simpleNm":"대구상회","zipCd":"690836","addr":"제주 제주시 일도1동","telNo":"064)722-7638","bizType":"1008","bizTypeNm":"의류","bizTypeDetail":"내의판매점","salesCd":"145"}},{"type":"Feature","geometry":{"type":"Point","coordinates":[126.5641,33.248838]},"properties":{"seq":197325,"regDate":1584138183283,"simpleNm":"대도상회","zipCd":"63591","addr":"제주 서귀포시 서귀동","telNo":"064)762-5907","bizType":"1008","bizTypeNm":"의류","bizTypeDetail":"내의판매점","salesCd":"145"}},{"type":"Feature","geometry":{"type":"Point","coordinates":[0,0]},"properties":{"seq":247328,"regDate":1584138533982,"simpleNm":"대림주단","zipCd":"690836","addr":"제주 제주시 일도1동","telNo":null,"bizType":"1101","bizTypeNm":"직물/침구류","bizTypeDetail":"옷감판매점","salesCd":"145"}},{"type":"Feature","geometry":{"type":"Point","coordinates":[126.521743,33.496614]},"properties":{"seq":319056,"regDate":1584139041926,"simpleNm":"대신커텐","zipCd":"63201","addr":"제주 제주시 도남동","telNo":"064)758-1020","bizType":"1102","bizTypeNm":"직물/침구류","bizTypeDetail":"침구,커튼,카펫트점","salesCd":"145"}},{"type":"Feature","geometry":{"type":"Point","coordinates":[0,0]},"properties":{"seq":348952,"regDate":1584139239164,"simpleNm":"대정님프만대리점","zipCd":"63508","addr":"제주 서귀포시 대정읍","telNo":"064)794-0953","bizType":"1102","bizTypeNm":"직물/침구류","bizTypeDetail":"침구,커튼,카펫트점","salesCd":"145"}},{"type":"Feature","geometry":{"type":"Point","coordinates":[126.537452,33.51593]},"properties":{"seq":299314,"regDate":1584138898296,"simpleNm":"대창상회","zipCd":"63281","addr":"제주 제주시 건입동","telNo":"064)757-3903","bizType":"1010","bizTypeNm":"의류","bizTypeDetail":"양품점","salesCd":"145"}},{"type":"Feature","geometry":{"type":"Point","coordinates":[126.4908,33.478134]},"properties":{"seq":1442241,"regDate":1584146961857,"simpleNm":"댄디(DANDY)","zipCd":"63140","addr":"제주 제주시 국기로 46","telNo":"064)742-5622","bizType":"1207","bizTypeNm":"신변잡화","bizTypeDetail":"일반신발점","salesCd":"145"}},{"type":"Feature","geometry":{"type":"Point","coordinates":[126.561369,33.249778]},"properties":{"seq":2200231,"regDate":1584151940980,"simpleNm":"댑 제주점","zipCd":"63592","addr":"제주 서귀포시 중앙로 57","telNo":"064)733-7933","bizType":"1008","bizTypeNm":"의류","bizTypeDetail":"내의판매점","salesCd":"145"}},{"type":"Feature","geometry":{"type":"Point","coordinates":[126.639281,33.538018]},"properties":{"seq":4369085,"regDate":1625782143559,"simpleNm":"댑 함덕점","zipCd":"63331","addr":"제주 제주시 조천읍 신북로 255","telNo":"064)000-0000","bizType":"1008","bizTypeNm":"의류","bizTypeDetail":"내의판매점","salesCd":"145"}},{"type":"Feature","geometry":{"type":"Point","coordinates":[126.509882,33.508104]},"properties":{"seq":3889923,"regDate":1591048894630,"simpleNm":"더(The)레인보우","zipCd":"63161","addr":"제주 제주시 용문로 152","telNo":"02)0000-0000","bizType":"1004","bizTypeNm":"의류","bizTypeDetail":"기성복점","salesCd":"145"}},{"type":"Feature","geometry":{"type":"Point","coordinates":[126.475399,33.489653]},"properties":{"seq":3198360,"regDate":1584158219568,"simpleNm":"더데이걸","zipCd":"63096","addr":"제주 제주시 월랑로 48","telNo":"064)749-0222","bizType":"1004","bizTypeNm":"의류","bizTypeDetail":"기성복점","salesCd":"145"}},{"type":"Feature","geometry":{"type":"Point","coordinates":[126.524366,33.51303]},"properties":{"seq":1455749,"regDate":1584147051750,"simpleNm":"더데이걸제주지하점","zipCd":"63168","addr":"제주 제주시 중앙로 지하 60","telNo":"064)724-4878","bizType":"1004","bizTypeNm":"의류","bizTypeDetail":"기성복점","salesCd":"145"}},{"type":"Feature","geometry":{"type":"Point","coordinates":[126.49118,33.488693]},"properties":{"seq":4734382,"regDate":1654726394247,"simpleNm":"더랑랑마켓","zipCd":"63124","addr":"제주 제주시 신대로12길 51","telNo":"064)711-1111","bizType":"1007","bizTypeNm":"의류","bizTypeDetail":"아동 및 유아복점","salesCd":"145"}},{"type":"Feature","geometry":{"type":"Point","coordinates":[126.519391,33.493647]},"properties":{"seq":3971238,"regDate":1596508543125,"simpleNm":"더맨신사정장","zipCd":"63191","addr":"제주 제주시 오남로 20","telNo":"064)752-8899","bizType":"1001","bizTypeNm":"의류","bizTypeDetail":"맞춤복점","salesCd":"145"}},{"type":"Feature","geometry":{"type":"Point","coordinates":[126.481435,33.490495]},"properties":{"seq":3681498,"regDate":1584161421664,"simpleNm":"더뱅크","zipCd":"63128","addr":"제주 제주시 남녕로 28-1","telNo":"064)000-0000","bizType":"1004","bizTypeNm":"의류","bizTypeDetail":"기성복점","salesCd":"145"}},{"type":"Feature","geometry":{"type":"Point","coordinates":[126.552267,33.487751]},"properties":{"seq":3211488,"regDate":1584158313304,"simpleNm":"더불유","zipCd":"63308","addr":"제주 제주시 연신로 188-29","telNo":"064)111-1111","bizType":"1004","bizTypeNm":"의류","bizTypeDetail":"기성복점","salesCd":"145"}},{"type":"Feature","geometry":{"type":"Point","coordinates":[126.561723,33.249154]},"properties":{"seq":2790712,"regDate":1584155608105,"simpleNm":"더블버디","zipCd":"63591","addr":"제주 서귀포시 중앙로 52","telNo":"064)767-8855","bizType":"1004","bizTypeNm":"의류","bizTypeDetail":"기성복점","salesCd":"145"}},{"type":"Feature","geometry":{"type":"Point","coordinates":[126.561723,33.249154]},"properties":{"seq":2768658,"regDate":1584155469823,"simpleNm":"더블옴므","zipCd":"63591","addr":"제주 서귀포시 중앙로 52","telNo":"064)767-8855","bizType":"1004","bizTypeNm":"의류","bizTypeDetail":"기성복점","salesCd":"160"}},{"type":"Feature","geometry":{"type":"Point","coordinates":[126.564128,33.247577]},"properties":{"seq":3746139,"regDate":1584161854999,"simpleNm":"더블유 (W)","zipCd":"63595","addr":"제주 서귀포시 이중섭로 6","telNo":"064)733-0908","bizType":"1004","bizTypeNm":"의류","bizTypeDetail":"기성복점","salesCd":"145"}},{"type":"Feature","geometry":{"type":"Point","coordinates":[126.477292,33.481068]},"properties":{"seq":3920907,"regDate":1593036053722,"simpleNm":"더블유(w)","zipCd":"63088","addr":"제주 제주시 노형4길 30","telNo":"064)111-1111","bizType":"1004","bizTypeNm":"의류","bizTypeDetail":"기성복점","salesCd":"145"}},{"type":"Feature","geometry":{"type":"Point","coordinates":[126.476679,33.488161]},"properties":{"seq":1342917,"regDate":1584146271231,"simpleNm":"더블유더블유 우먼우맨","zipCd":"63099","addr":"제주 제주시 월랑로 27","telNo":"064)739-3577","bizType":"1004","bizTypeNm":"의류","bizTypeDetail":"기성복점","salesCd":"145"}},{"type":"Feature","geometry":{"type":"Point","coordinates":[126.511516,33.25067]},"properties":{"seq":3470933,"regDate":1584160039947,"simpleNm":"더사리(The SARI)","zipCd":"63567","addr":"제주 서귀포시 김정문화로 66","telNo":"064)0000-0000","bizType":"1201","bizTypeNm":"신변잡화","bizTypeDetail":"악세사리점","salesCd":"145"}},{"type":"Feature","geometry":{"type":"Point","coordinates":[126.274375,33.420299]},"properties":{"seq":1609750,"regDate":1584148131702,"simpleNm":"더스타일","zipCd":"63026","addr":"제주 제주시 한림읍 한수풀로4길 10","telNo":"064)796-5051","bizType":"1004","bizTypeNm":"의류","bizTypeDetail":"기성복점","salesCd":"145"}},{"type":"Feature","geometry":{"type":"Point","coordinates":[126.265454,33.411273]},"properties":{"seq":3794169,"regDate":1584335085479,"simpleNm":"더스타일","zipCd":"63029","addr":"제주 제주시 한림읍 한림중앙로 39","telNo":"064)111-1111","bizType":"1004","bizTypeNm":"의류","bizTypeDetail":"기성복점","salesCd":"145"}},{"type":"Feature","geometry":{"type":"Point","coordinates":[126.432767,33.484187]},"properties":{"seq":4211782,"regDate":1615327750270,"simpleNm":"더예쁜모자","zipCd":"63070","addr":"제주 제주시 우평로 318","telNo":"064)000-0000","bizType":"1201","bizTypeNm":"신변잡화","bizTypeDetail":"악세사리점","salesCd":"145"}},{"type":"Feature","geometry":{"type":"Point","coordinates":[126.528668,33.499407]},"properties":{"seq":4650248,"regDate":1648159654059,"simpleNm":"더오브젝트","zipCd":"63207","addr":"제주 제주시 서광로32길 13","telNo":"064)000-0000","bizType":"1004","bizTypeNm":"의류","bizTypeDetail":"기성복점","salesCd":"145"}},{"type":"Feature","geometry":{"type":"Point","coordinates":[126.493866,33.485637]},"properties":{"seq":1909385,"regDate":1584150178240,"simpleNm":"더캐럿","zipCd":"63133","addr":"제주 제주시 노연로 128","telNo":"064)743-2229","bizType":"1201","bizTypeNm":"신변잡화","bizTypeDetail":"악세사리점","salesCd":"145"}},{"type":"Feature","geometry":{"type":"Point","coordinates":[126.264443,33.413671]},"properties":{"seq":3715650,"regDate":1584161645642,"simpleNm":"덕진신발","zipCd":"63032","addr":"제주 제주시 한림읍 한림중앙로 12","telNo":"064)796-5613","bizType":"1207","bizTypeNm":"신변잡화","bizTypeDetail":"일반신발점","salesCd":"145"}},{"type":"Feature","geometry":{"type":"Point","coordinates":[126.564839,33.248322]},"properties":{"seq":2061714,"regDate":1584151094314,"simpleNm":"데드라","zipCd":"63591","addr":"제주 서귀포시 중정로 79","telNo":"064)767-4985","bizType":"1004","bizTypeNm":"의류","bizTypeDetail":"기성복점","salesCd":"145"}},{"type":"Feature","geometry":{"type":"Point","coordinates":[126.524409,33.514012]},"properties":{"seq":417379,"regDate":1584139702281,"simpleNm":"데무","zipCd":"63166","addr":"제주 제주시 칠성로길 15","telNo":"064)726-3379","bizType":"1004","bizTypeNm":"의류","bizTypeDetail":"기성복점","salesCd":"160"}},{"type":"Feature","geometry":{"type":"Point","coordinates":[126.524924,33.514091]},"properties":{"seq":204495,"regDate":1584138234332,"simpleNm":"데미안","zipCd":"63277","addr":"제주 제주시 칠성로길 18","telNo":"064)726-3639","bizType":"1004","bizTypeNm":"의류","bizTypeDetail":"기성복점","salesCd":"145"}},{"type":"Feature","geometry":{"type":"Point","coordinates":[126.524924,33.514091]},"properties":{"seq":4407814,"regDate":1628806023326,"simpleNm":"데미안제주점","zipCd":"63277","addr":"제주 제주시 칠성로길 18","telNo":"064)000-0000","bizType":"1004","bizTypeNm":"의류","bizTypeDetail":"기성복점","salesCd":"145"}},{"type":"Feature","geometry":{"type":"Point","coordinates":[126.529568,33.498049]},"properties":{"seq":3310858,"regDate":1584158979887,"simpleNm":"데쉬","zipCd":"63207","addr":"제주 제주시 광양14길 12","telNo":"064)1234-1234","bizType":"1004","bizTypeNm":"의류","bizTypeDetail":"기성복점","salesCd":"145"}},{"type":"Feature","geometry":{"type":"Point","coordinates":[0,0]},"properties":{"seq":72016,"regDate":1584137310540,"simpleNm":"데이지","zipCd":"690835","addr":"제주 제주시 일도1동","telNo":"064)759-6543","bizType":"1004","bizTypeNm":"의류","bizTypeDetail":"기성복점","salesCd":"145"}},{"type":"Feature","geometry":{"type":"Point","coordinates":[126.479298,33.491886]},"properties":{"seq":1519217,"regDate":1584147483821,"simpleNm":"데일리","zipCd":"63096","addr":"제주 제주시 남녕로 53","telNo":"064)713-8166","bizType":"1201","bizTypeNm":"신변잡화","bizTypeDetail":"악세사리점","salesCd":"145"}},{"type":"Feature","geometry":{"type":"Point","coordinates":[126.24915,33.226022]},"properties":{"seq":3966553,"regDate":1596060544446,"simpleNm":"데일리91","zipCd":"63507","addr":"제주 서귀포시 대정읍 동일하모로 169","telNo":"064)000-0000","bizType":"1004","bizTypeNm":"의류","bizTypeDetail":"기성복점","salesCd":"145"}},{"type":"Feature","geometry":{"type":"Point","coordinates":[126.526099,33.514927]},"properties":{"seq":2594780,"regDate":1584154362710,"simpleNm":"데코","zipCd":"63277","addr":"제주 제주시 중앙로7길 13","telNo":"064)702-0300","bizType":"1004","bizTypeNm":"의류","bizTypeDetail":"기성복점","salesCd":"145"}},{"type":"Feature","geometry":{"type":"Point","coordinates":[126.512064,33.492613]},"properties":{"seq":51603,"regDate":1584137165415,"simpleNm":"데코","zipCd":"63145","addr":"제주 제주시 연삼로 184","telNo":"064)756-6598","bizType":"1102","bizTypeNm":"직물/침구류","bizTypeDetail":"침구,커튼,카펫트점","salesCd":"145"}},{"type":"Feature","geometry":{"type":"Point","coordinates":[126.559336,33.24889]},"properties":{"seq":4075953,"regDate":1604527825519,"simpleNm":"뎁스터(Debster)","zipCd":"63592","addr":"제주 서귀포시 서문로29번길 15","telNo":"070)3565-6898","bizType":"1004","bizTypeNm":"의류","bizTypeDetail":"기성복점","salesCd":"145"}},{"type":"Feature","geometry":{"type":"Point","coordinates":[126.545857,33.498988]},"properties":{"seq":3896047,"regDate":1591308064551,"simpleNm":"도깨비옷장","zipCd":"63261","addr":"제주 제주시 태성로5길 1","telNo":"064)111-1111","bizType":"1004","bizTypeNm":"의류","bizTypeDetail":"기성복점","salesCd":"145"}},{"type":"Feature","geometry":{"type":"Point","coordinates":[126.561743,33.252051]},"properties":{"seq":3946991,"regDate":1594678078827,"simpleNm":"도깨비할인매장","zipCd":"63591","addr":"제주 서귀포시 동문동로53번길 14","telNo":"064)764-3868","bizType":"1004","bizTypeNm":"의류","bizTypeDetail":"기성복점","salesCd":"145"}},{"type":"Feature","geometry":{"type":"Point","coordinates":[126.54052,33.490191]},"properties":{"seq":1232681,"regDate":1584145488095,"simpleNm":"도나","zipCd":"63230","addr":"제주 제주시 구남동5길 20","telNo":"070)7764-5009","bizType":"1007","bizTypeNm":"의류","bizTypeDetail":"아동 및 유아복점","salesCd":"145"}},{"type":"Feature","geometry":{"type":"Point","coordinates":[0,0]},"properties":{"seq":44459,"regDate":1584137119781,"simpleNm":"도남백양","zipCd":"690806","addr":"제주 제주시 도남동","telNo":"064)753-0131","bizType":"1008","bizTypeNm":"의류","bizTypeDetail":"내의판매점","salesCd":"145"}},{"type":"Feature","geometry":{"type":"Point","coordinates":[126.528086,33.491715]},"properties":{"seq":231156,"regDate":1584138428237,"simpleNm":"도남침대마트","zipCd":"63219","addr":"제주 제주시 도남로 98","telNo":"064)758-2269","bizType":"1102","bizTypeNm":"직물/침구류","bizTypeDetail":"침구,커튼,카펫트점","salesCd":"145"}},{"type":"Feature","geometry":{"type":"Point","coordinates":[126.525929,33.514376]},"properties":{"seq":4645253,"regDate":1647900460589,"simpleNm":"도담","zipCd":"63277","addr":"제주 제주시 칠성로길 30","telNo":"064)0000-0000","bizType":"1299","bizTypeNm":"신변잡화","bizTypeDetail":"기타 신변잡화","salesCd":"145"}},{"type":"Feature","geometry":{"type":"Point","coordinates":[0,0]},"properties":{"seq":834106,"regDate":1584142602033,"simpleNm":"도도","zipCd":"690830","addr":"제주 제주시 일도2동","telNo":"064)755-1355","bizType":"1099","bizTypeNm":"의류","bizTypeDetail":"기타 의류","salesCd":"145"}},{"type":"Feature","geometry":{"type":"Point","coordinates":[126.717898,33.280114]},"properties":{"seq":285114,"regDate":1584138803332,"simpleNm":"도도(DoDo)","zipCd":"63621","addr":"제주 서귀포시 남원읍","telNo":"064)764-1541","bizType":"1004","bizTypeNm":"의류","bizTypeDetail":"기성복점","salesCd":"145"}},{"type":"Feature","geometry":{"type":"Point","coordinates":[126.667303,33.539047]},"properties":{"seq":4295721,"regDate":1620857339302,"simpleNm":"도도러블리","zipCd":"63333","addr":"제주 제주시 조천읍 함덕서4길 60-9","telNo":"064)000-0000","bizType":"1102","bizTypeNm":"직물/침구류","bizTypeDetail":"침구,커튼,카펫트점","salesCd":"145"}},{"type":"Feature","geometry":{"type":"Point","coordinates":[126.475672,33.485933]},"properties":{"seq":3021090,"regDate":1584157074617,"simpleNm":"도도맘","zipCd":"63099","addr":"제주 제주시 수덕5길 26","telNo":"064)747-7701","bizType":"1004","bizTypeNm":"의류","bizTypeDetail":"기성복점","salesCd":"145"}},{"type":"Feature","geometry":{"type":"Point","coordinates":[0,0]},"properties":{"seq":1470369,"regDate":1584147154113,"simpleNm":"도란도란","zipCd":"690121","addr":"제주 제주시 아라1동","telNo":"064)722-3932","bizType":"1199","bizTypeNm":"직물/침구류","bizTypeDetail":"기타 직물","salesCd":"145"}},{"type":"Feature","geometry":{"type":"Point","coordinates":[126.514936,33.500205]},"properties":{"seq":89320,"regDate":1584137445883,"simpleNm":"도로시","zipCd":"63184","addr":"제주 제주시 서광로 173","telNo":"064)747-1289","bizType":"1099","bizTypeNm":"의류","bizTypeDetail":"기타 의류","salesCd":"145"}},{"type":"Feature","geometry":{"type":"Point","coordinates":[126.836202,33.539308]},"properties":{"seq":4579456,"regDate":1642198352554,"simpleNm":"도르멍쉼팡","zipCd":"63359","addr":"제주 제주시 구좌읍 해맞이해안로 1088","telNo":"064)000-0000","bizType":"1201","bizTypeNm":"신변잡화","bizTypeDetail":"악세사리점","salesCd":"145"}},{"type":"Feature","geometry":{"type":"Point","coordinates":[126.779058,33.405893]},"properties":{"seq":3437728,"regDate":1584159818264,"simpleNm":"도시농부들(주)농업회사법인","zipCd":"63624","addr":"제주 서귀포시 표선면 번영로 2543-5","telNo":"064)787-8080","bizType":"1299","bizTypeNm":"신변잡화","bizTypeDetail":"기타 신변잡화","salesCd":"145"}},{"type":"Feature","geometry":{"type":"Point","coordinates":[126.266635,33.338883]},"properties":{"seq":4485291,"regDate":1635286097294,"simpleNm":"도이(DO-Y)","zipCd":"63005","addr":"제주 제주시 한경면 저지14길 23-3","telNo":"064)0000-0000","bizType":"1299","bizTypeNm":"신변잡화","bizTypeDetail":"기타 신변잡화","salesCd":"145"}},{"type":"Feature","geometry":{"type":"Point","coordinates":[126.524366,33.51303]},"properties":{"seq":3599358,"regDate":1584160883511,"simpleNm":"도토리","zipCd":"63168","addr":"제주 제주시 중앙로 지하 60","telNo":"064)000-0000","bizType":"1004","bizTypeNm":"의류","bizTypeDetail":"기성복점","salesCd":"145"}},{"type":"Feature","geometry":{"type":"Point","coordinates":[126.574013,33.26682]},"properties":{"seq":1743054,"regDate":1584149078858,"simpleNm":"돈가방","zipCd":"63579","addr":"제주 서귀포시 동홍동","telNo":"064)732-9606","bizType":"1205","bizTypeNm":"신변잡화","bizTypeDetail":"가방점","salesCd":"145"}},{"type":"Feature","geometry":{"type":"Point","coordinates":[126.563524,33.249832]},"properties":{"seq":4137470,"regDate":1609279867806,"simpleNm":"돌멩이","zipCd":"63591","addr":"제주 서귀포시 중앙로54번길 38","telNo":"064)747-8360","bizType":"1299","bizTypeNm":"신변잡화","bizTypeDetail":"기타 신변잡화","salesCd":"160"}},{"type":"Feature","geometry":{"type":"Point","coordinates":[0,0]},"properties":{"seq":145168,"regDate":1584137825374,"simpleNm":"돌실나이(제주점)두리토방","zipCd":"63172","addr":"제주 제주시 삼도일동","telNo":"064)726-2677","bizType":"1003","bizTypeNm":"의류","bizTypeDetail":"한복점","salesCd":"165"}},{"type":"Feature","geometry":{"type":"Point","coordinates":[0,0]},"properties":{"seq":196075,"regDate":1584138175076,"simpleNm":"동광상회","zipCd":"690011","addr":"제주 제주시 일도1동","telNo":"064)752-7386","bizType":"1206","bizTypeNm":"신변잡화","bizTypeDetail":"제화점","salesCd":"145"}},{"type":"Feature","geometry":{"type":"Point","coordinates":[126.573456,33.266343]},"properties":{"seq":4593676,"regDate":1643321225040,"simpleNm":"동귀의류","zipCd":"63579","addr":"제주 서귀포시 토평서로11번길 150","telNo":"064)111-1111","bizType":"1004","bizTypeNm":"의류","bizTypeDetail":"기성복점","salesCd":"145"}},{"type":"Feature","geometry":{"type":"Point","coordinates":[126.915044,33.449458]},"properties":{"seq":603622,"regDate":1584140973140,"simpleNm":"동남신발","zipCd":"63640","addr":"제주 서귀포시 성산읍","telNo":"064)782-2356","bizType":"1207","bizTypeNm":"신변잡화","bizTypeDetail":"일반신발점","salesCd":"145"}},{"type":"Feature","geometry":{"type":"Point","coordinates":[126.491383,33.492575]},"properties":{"seq":3620005,"regDate":1584161018906,"simpleNm":"동대문도매","zipCd":"63129","addr":"제주 제주시 신광로 34","telNo":"064)1111-1111","bizType":"1008","bizTypeNm":"의류","bizTypeDetail":"내의판매점","salesCd":"145"}},{"type":"Feature","geometry":{"type":"Point","coordinates":[126.489692,33.486019]},"properties":{"seq":3693443,"regDate":1584161498074,"simpleNm":"동대문도매","zipCd":"63131","addr":"제주 제주시 노연로 89","telNo":"064)111-1111","bizType":"1008","bizTypeNm":"의류","bizTypeDetail":"내의판매점","salesCd":"145"}},{"type":"Feature","geometry":{"type":"Point","coordinates":[126.568298,33.266293]},"properties":{"seq":3418722,"regDate":1584159692773,"simpleNm":"동대문쇼핑물","zipCd":"63579","addr":"제주 서귀포시 동홍로 200","telNo":"064)762-8980","bizType":"1004","bizTypeNm":"의류","bizTypeDetail":"기성복점","salesCd":"145"}},{"type":"Feature","geometry":{"type":"Point","coordinates":[0,0]},"properties":{"seq":1943178,"regDate":1584150376712,"simpleNm":"동명상회","zipCd":"63264","addr":"제주 제주시 일도일동","telNo":"064)757-4333","bizType":"1003","bizTypeNm":"의류","bizTypeDetail":"한복점","salesCd":"145"}},{"type":"Feature","geometry":{"type":"Point","coordinates":[126.56042,33.255448]},"properties":{"seq":691141,"regDate":1584141591486,"simpleNm":"동명수예점","zipCd":"63584","addr":"제주 서귀포시 서홍동","telNo":"064)762-8195","bizType":"1104","bizTypeNm":"직물/침구류","bizTypeDetail":"수예점","salesCd":"145"}},{"type":"Feature","geometry":{"type":"Point","coordinates":[126.536425,33.512613]},"properties":{"seq":1168895,"regDate":1584145034358,"simpleNm":"동문침구","zipCd":"63278","addr":"제주 제주시 동문로 21","telNo":"064)758-7866","bizType":"1102","bizTypeNm":"직물/침구류","bizTypeDetail":"침구,커튼,카펫트점","salesCd":"145"}},{"type":"Feature","geometry":{"type":"Point","coordinates":[126.525358,33.513826]},"properties":{"seq":305820,"regDate":1584138945264,"simpleNm":"동아실업","zipCd":"63277","addr":"제주 제주시 관덕로11길 7","telNo":"064)753-7441","bizType":"1004","bizTypeNm":"의류","bizTypeDetail":"기성복점","salesCd":"145"}},{"type":"Feature","geometry":{"type":"Point","coordinates":[0,0]},"properties":{"seq":36357,"regDate":1584137066989,"simpleNm":"동양한복","zipCd":"690836","addr":"제주 제주시 일도1동","telNo":"064)758-8270","bizType":"1003","bizTypeNm":"의류","bizTypeDetail":"한복점","salesCd":"145"}},{"type":"Feature","geometry":{"type":"Point","coordinates":[126.475672,33.485933]},"properties":{"seq":1409787,"regDate":1584146748543,"simpleNm":"두곤쥬","zipCd":"63099","addr":"제주 제주시 수덕5길 26","telNo":"070)4143-3302","bizType":"1004","bizTypeNm":"의류","bizTypeDetail":"기성복점","salesCd":"145"}},{"type":"Feature","geometry":{"type":"Point","coordinates":[126.528804,33.496328]},"properties":{"seq":1660063,"regDate":1584148491436,"simpleNm":"두리","zipCd":"63200","addr":"제주 제주시 신성로 91","telNo":"064)742-3341","bizType":"1205","bizTypeNm":"신변잡화","bizTypeDetail":"가방점","salesCd":"145"}},{"type":"Feature","geometry":{"type":"Point","coordinates":[126.543752,33.490938]},"properties":{"seq":4438618,"regDate":1631225474923,"simpleNm":"두린","zipCd":"63230","addr":"제주 제주시 박성내동길 49","telNo":"064)0000-0000","bizType":"1004","bizTypeNm":"의류","bizTypeDetail":"기성복점","salesCd":"145"}},{"type":"Feature","geometry":{"type":"Point","coordinates":[126.561595,33.25013]},"properties":{"seq":54280,"regDate":1584137185904,"simpleNm":"둘리선물의집","zipCd":"63591","addr":"제주 서귀포시 서귀동","telNo":"064)733-6625","bizType":"1099","bizTypeNm":"의류","bizTypeDetail":"기타 의류","salesCd":"145"}},{"type":"Feature","geometry":{"type":"Point","coordinates":[126.483511,33.48226]},"properties":{"seq":1139074,"regDate":1584144822646,"simpleNm":"드 마르비 연동점","zipCd":"63084","addr":"제주 제주시 연북로 21","telNo":"064)745-4353","bizType":"1007","bizTypeNm":"의류","bizTypeDetail":"아동 및 유아복점","salesCd":"145"}},{"type":"Feature","geometry":{"type":"Point","coordinates":[126.49118,33.488693]},"properties":{"seq":4027902,"regDate":1600467221320,"simpleNm":"드레스룸","zipCd":"63124","addr":"제주 제주시 신대로12길 51","telNo":"064)749-1121","bizType":"1004","bizTypeNm":"의류","bizTypeDetail":"기성복점","salesCd":"145"}},{"type":"Feature","geometry":{"type":"Point","coordinates":[126.493654,33.419788]},"properties":{"seq":1683303,"regDate":1584148656281,"simpleNm":"드레스코드","zipCd":"690802","addr":"제주 제주시 노형동","telNo":"064)744-0521","bizType":"1004","bizTypeNm":"의류","bizTypeDetail":"기성복점","salesCd":"145"}},{"type":"Feature","geometry":{"type":"Point","coordinates":[126.524366,33.51303]},"properties":{"seq":547319,"regDate":1584140590223,"simpleNm":"드레스코코","zipCd":"63168","addr":"제주 제주시 중앙로 지하 60","telNo":"064)752-5577","bizType":"1207","bizTypeNm":"신변잡화","bizTypeDetail":"일반신발점","salesCd":"145"}},{"type":"Feature","geometry":{"type":"Point","coordinates":[126.47598,33.488019]},"properties":{"seq":2207051,"regDate":1584151982895,"simpleNm":"드루와","zipCd":"63099","addr":"제주 제주시 수덕11길 1","telNo":"064)712-7119","bizType":"1004","bizTypeNm":"의류","bizTypeDetail":"기성복점","salesCd":"145"}},{"type":"Feature","geometry":{"type":"Point","coordinates":[126.475523,33.483579]},"properties":{"seq":2397986,"regDate":1584153159027,"simpleNm":"드림쥬얼리","zipCd":"63102","addr":"제주 제주시 노형로 371","telNo":"064)712-2219","bizType":"1201","bizTypeNm":"신변잡화","bizTypeDetail":"악세사리점","salesCd":"145"}},{"type":"Feature","geometry":{"type":"Point","coordinates":[126.564071,33.25206]},"properties":{"seq":2883350,"regDate":1584156189717,"simpleNm":"드마르비 서귀포점","zipCd":"63595","addr":"제주 서귀포시 중앙로 29","telNo":"064)733-2870","bizType":"1004","bizTypeNm":"의류","bizTypeDetail":"기성복점","salesCd":"145"}},{"type":"Feature","geometry":{"type":"Point","coordinates":[126.524366,33.51303]},"properties":{"seq":2242522,"regDate":1584152199457,"simpleNm":"드마르비제주중앙점","zipCd":"63168","addr":"제주 제주시 중앙로 지하 60","telNo":"064)755-2800","bizType":"1007","bizTypeNm":"의류","bizTypeDetail":"아동 및 유아복점","salesCd":"145"}},{"type":"Feature","geometry":{"type":"Point","coordinates":[126.253096,33.326693]},"properties":{"seq":1083293,"regDate":1584144403606,"simpleNm":"들풀사랑","zipCd":"63005","addr":"제주 제주시 한경면","telNo":"064)773-0711","bizType":"1101","bizTypeNm":"직물/침구류","bizTypeDetail":"옷감판매점","salesCd":"145"}},{"type":"Feature","geometry":{"type":"Point","coordinates":[126.53144,33.497002]},"properties":{"seq":4344135,"regDate":1624054436183,"simpleNm":"디:모데(Die mode)","zipCd":"63206","addr":"제주 제주시 중앙로 258","telNo":"064)000-0000","bizType":"1004","bizTypeNm":"의류","bizTypeDetail":"기성복점","salesCd":"145"}},{"type":"Feature","geometry":{"type":"Point","coordinates":[126.567455,33.248987]},"properties":{"seq":2226945,"regDate":1584152103649,"simpleNm":"디스플레이","zipCd":"63590","addr":"제주 서귀포시 동문로 69","telNo":"064)733-5488","bizType":"1007","bizTypeNm":"의류","bizTypeDetail":"아동 및 유아복점","salesCd":"145"}},{"type":"Feature","geometry":{"type":"Point","coordinates":[126.54939,33.490067]},"properties":{"seq":2796213,"regDate":1584155642256,"simpleNm":"디아라","zipCd":"63245","addr":"제주 제주시 간월동로 33","telNo":"064)000-0000","bizType":"1004","bizTypeNm":"의류","bizTypeDetail":"기성복점","salesCd":"145"}},{"type":"Feature","geometry":{"type":"Point","coordinates":[126.427785,33.486828]},"properties":{"seq":2010364,"regDate":1584150779652,"simpleNm":"디아멀티샵","zipCd":"63070","addr":"제주 제주시 우정로 33","telNo":"064)745-7440","bizType":"1010","bizTypeNm":"의류","bizTypeDetail":"양품점","salesCd":"145"}},{"type":"Feature","geometry":{"type":"Point","coordinates":[126.250666,33.225291]},"properties":{"seq":4767682,"regDate":1656633295041,"simpleNm":"디킴(D.kim)","zipCd":"63507","addr":"제주 서귀포시 대정읍 하모중앙로32번길 17","telNo":"064)000-0000","bizType":"1099","bizTypeNm":"의류","bizTypeDetail":"기타 의류","salesCd":"145"}},{"type":"Feature","geometry":{"type":"Point","coordinates":[126.481637,33.481498]},"properties":{"seq":3263703,"regDate":1584158665077,"simpleNm":"딥 (DEEP)","zipCd":"63086","addr":"제주 제주시 1100로 3308","telNo":"064)748-5587","bizType":"1004","bizTypeNm":"의류","bizTypeDetail":"기성복점","salesCd":"160"}},{"type":"Feature","geometry":{"type":"Point","coordinates":[0,0]},"properties":{"seq":382475,"regDate":1584139464076,"simpleNm":"딸기딸기","zipCd":"690780","addr":"제주 제주시 일도1동","telNo":"064)759-8282","bizType":"1004","bizTypeNm":"의류","bizTypeDetail":"기성복점","salesCd":"145"}},{"type":"Feature","geometry":{"type":"Point","coordinates":[0,0]},"properties":{"seq":85354,"regDate":1584137415696,"simpleNm":"땅콩","zipCd":"690011","addr":"제주 제주시 일도1동","telNo":"064)722-5835","bizType":"1205","bizTypeNm":"신변잡화","bizTypeDetail":"가방점","salesCd":"145"}},{"type":"Feature","geometry":{"type":"Point","coordinates":[126.42684,33.252296]},"properties":{"seq":4319808,"regDate":1622498952133,"simpleNm":"땅콩언니잡화점","zipCd":"63545","addr":"제주 서귀포시 천제연로207번길 7","telNo":"064)000-0000","bizType":"1004","bizTypeNm":"의류","bizTypeDetail":"기성복점","salesCd":"145"}},{"type":"Feature","geometry":{"type":"Point","coordinates":[126.478495,33.485648]},"properties":{"seq":4425345,"regDate":1630361166090,"simpleNm":"땡큐","zipCd":"63099","addr":"제주 제주시 노형로 407","telNo":"064)000-0000","bizType":"1004","bizTypeNm":"의류","bizTypeDetail":"기성복점","salesCd":"145"}},