{"type":"FeatureCollection","features":[{"type":"Feature","geometry":{"type":"Point","coordinates":[126.750589,33.546852]},"properties":{"seq":1193241,"regDate":1584145213661,"simpleNm":"( 주 ) 제주미래에너지경성가스","zipCd":"63348","addr":"제주 제주시 구좌읍 김녕남 6 길 52,","telNo":"064)783-8998","bizType":"3303","bizTypeNm":"연료판매","bizTypeDetail":"가스판매점","salesCd":"168"}},{"type":"Feature","geometry":{"type":"Point","coordinates":[126.269186,33.415528]},"properties":{"seq":1193637,"regDate":1584145216276,"simpleNm":"( 주 ) 제주미래에너지동아가스","zipCd":"63028","addr":"제주 제주시 한림읍 한림상로 192,","telNo":"064)796-2332","bizType":"3303","bizTypeNm":"연료판매","bizTypeDetail":"가스판매점","salesCd":"168"}},{"type":"Feature","geometry":{"type":"Point","coordinates":[126.339691,33.466523]},"properties":{"seq":1182492,"regDate":1584145138145,"simpleNm":"( 주 ) 제주미래에너지애월가스","zipCd":"63046","addr":"제주 제주시 애월읍 고내로 11 길 24,","telNo":"064)799-6223","bizType":"3303","bizTypeNm":"연료판매","bizTypeDetail":"가스판매점","salesCd":"168"}},{"type":"Feature","geometry":{"type":"Point","coordinates":[126.536829,33.493475]},"properties":{"seq":4106671,"regDate":1606783448689,"simpleNm":"(JJ)클린","zipCd":"63223","addr":"제주 제주시 남광북5길 12","telNo":"070)1111-1111","bizType":"3402","bizTypeNm":"건축관련업","bizTypeDetail":"기계류 건축설비","salesCd":"145"}},{"type":"Feature","geometry":{"type":"Point","coordinates":[126.533057,33.517156]},"properties":{"seq":4419736,"regDate":1629929227074,"simpleNm":"(공식)귀뚜라미보일러 동제주점","zipCd":"63280","addr":"제주 제주시 임항로 80","telNo":"064)805-9705","bizType":"3102","bizTypeNm":"전자제품","bizTypeDetail":"냉난방기구","salesCd":"165"}},{"type":"Feature","geometry":{"type":"Point","coordinates":[0,0]},"properties":{"seq":450217,"regDate":1584139931538,"simpleNm":"(주)PC닷컴","zipCd":"690831","addr":"제주 제주시 일도2동","telNo":"064)726-2625","bizType":"6103","bizTypeNm":"사무기기","bizTypeDetail":"컴퓨터기기","salesCd":"145"}},{"type":"Feature","geometry":{"type":"Point","coordinates":[126.523181,33.246848]},"properties":{"seq":851255,"regDate":1584142720294,"simpleNm":"(주)금강전기공사","zipCd":"63571","addr":"제주 서귀포시 일주동로 9075","telNo":"064)111-1111","bizType":"3201","bizTypeNm":"전자제품","bizTypeDetail":"조명 전기기구점","salesCd":"160"}},{"type":"Feature","geometry":{"type":"Point","coordinates":[0,0]},"properties":{"seq":705840,"regDate":1584141699986,"simpleNm":"(주)금강전기조명자재마트","zipCd":"690121","addr":"제주 제주시 아라1동","telNo":"064)702-2051","bizType":"3201","bizTypeNm":"전자제품","bizTypeDetail":"조명 전기기구점","salesCd":"165"}},{"type":"Feature","geometry":{"type":"Point","coordinates":[126.460764,33.485851]},"properties":{"seq":245177,"regDate":1584138519742,"simpleNm":"(주)대광건재","zipCd":"63109","addr":"제주 제주시 오광로 117","telNo":null,"bizType":"3401","bizTypeNm":"건축관련업","bizTypeDetail":"건축자재","salesCd":"167"}},{"type":"Feature","geometry":{"type":"Point","coordinates":[0,0]},"properties":{"seq":433781,"regDate":1584139818998,"simpleNm":"(주)대성","zipCd":"690161","addr":"제주 제주시 오라1동","telNo":"064)753-3088","bizType":"3303","bizTypeNm":"연료판매","bizTypeDetail":"가스판매점","salesCd":"165"}},{"type":"Feature","geometry":{"type":"Point","coordinates":[126.501045,33.4932]},"properties":{"seq":405605,"regDate":1584139619091,"simpleNm":"(주)대성정보기술","zipCd":"63120","addr":"제주 제주시 연동","telNo":"064)747-3244","bizType":"6103","bizTypeNm":"사무기기","bizTypeDetail":"컴퓨터기기","salesCd":"167"}},{"type":"Feature","geometry":{"type":"Point","coordinates":[126.522469,33.503419]},"properties":{"seq":623295,"regDate":1584141110254,"simpleNm":"(주)대한에너지","zipCd":"63148","addr":"제주 제주시 서광로 46","telNo":"064)748-4989","bizType":"3303","bizTypeNm":"연료판매","bizTypeDetail":"가스판매점","salesCd":"166"}},{"type":"Feature","geometry":{"type":"Point","coordinates":[126.415279,33.42951]},"properties":{"seq":289413,"regDate":1584138831714,"simpleNm":"(주)두산종합건재","zipCd":"63065","addr":"제주 제주시 애월읍 평화로 2448","telNo":"064)744-0408","bizType":"3403","bizTypeNm":"건축관련업","bizTypeDetail":"철물점","salesCd":"167"}},{"type":"Feature","geometry":{"type":"Point","coordinates":[126.529981,33.49224]},"properties":{"seq":257438,"regDate":1584138598957,"simpleNm":"(주)드림컴퓨터랜드","zipCd":"63221","addr":"제주 제주시 도남동","telNo":"064)722-1110","bizType":"6103","bizTypeNm":"사무기기","bizTypeDetail":"컴퓨터기기","salesCd":"160"}},{"type":"Feature","geometry":{"type":"Point","coordinates":[0,0]},"properties":{"seq":4183869,"regDate":1612908526461,"simpleNm":"(주)백록에너지","zipCd":"63356","addr":"제주 제주시 구좌읍 덕평로 306","telNo":"064)751-5701","bizType":"3303","bizTypeNm":"연료판매","bizTypeDetail":"가스판매점","salesCd":"160"}},{"type":"Feature","geometry":{"type":"Point","coordinates":[126.536993,33.485661]},"properties":{"seq":448801,"regDate":1584139922734,"simpleNm":"(주)삼성멀티프라자","zipCd":"63233","addr":"제주 제주시 연북로 537","telNo":"064)752-4488","bizType":"3101","bizTypeNm":"전자제품","bizTypeDetail":"가전제품점","salesCd":"166"}},{"type":"Feature","geometry":{"type":"Point","coordinates":[126.829789,33.324796]},"properties":{"seq":362424,"regDate":1584139326622,"simpleNm":"(주)성원전력","zipCd":"63629","addr":"제주 서귀포시 표선면","telNo":"064)787-3618","bizType":"3201","bizTypeNm":"전자제품","bizTypeDetail":"조명 전기기구점","salesCd":"145"}},{"type":"Feature","geometry":{"type":"Point","coordinates":[126.476608,33.494743]},"properties":{"seq":2801785,"regDate":1584155677812,"simpleNm":"(주)신영타일","zipCd":"63116","addr":"제주 제주시 오일장서길 14","telNo":"064)747-2541","bizType":"3401","bizTypeNm":"건축관련업","bizTypeDetail":"건축자재","salesCd":"165"}},{"type":"Feature","geometry":{"type":"Point","coordinates":[126.542585,33.501386]},"properties":{"seq":155755,"regDate":1584137897702,"simpleNm":"(주)월드전자","zipCd":"63218","addr":"제주 제주시 천수로6길 24-1","telNo":"064)757-8322","bizType":"3101","bizTypeNm":"전자제품","bizTypeDetail":"가전제품점","salesCd":"160"}},{"type":"Feature","geometry":{"type":"Point","coordinates":[0,0]},"properties":{"seq":357066,"regDate":1584139291582,"simpleNm":"(주)유진텔레콤","zipCd":"690836","addr":"제주 제주시 일도1동","telNo":"064)753-5300","bizType":"6102","bizTypeNm":"사무기기","bizTypeDetail":"정보통신기기","salesCd":"145"}},{"type":"Feature","geometry":{"type":"Point","coordinates":[126.505809,33.471928]},"properties":{"seq":3406600,"regDate":1584159611827,"simpleNm":"(주)인터비젼","zipCd":"63147","addr":"제주 제주시 아연로 124-24","telNo":"064)751-6005","bizType":"3199","bizTypeNm":"전자제품","bizTypeDetail":"기타 전자제품","salesCd":"145"}},{"type":"Feature","geometry":{"type":"Point","coordinates":[126.595765,33.518762]},"properties":{"seq":778627,"regDate":1584142200701,"simpleNm":"(주)정건설자재","zipCd":"63326","addr":"제주 제주시 연삼로 1050-1","telNo":"064)726-5576","bizType":"3401","bizTypeNm":"건축관련업","bizTypeDetail":"건축자재","salesCd":"166"}},{"type":"Feature","geometry":{"type":"Point","coordinates":[126.539403,33.506226]},"properties":{"seq":591621,"regDate":1584140889229,"simpleNm":"(주)제이에스텔레콤","zipCd":"63275","addr":"제주 제주시 동광로 112","telNo":"064)711-9050","bizType":"6102","bizTypeNm":"사무기기","bizTypeDetail":"정보통신기기","salesCd":"167"}},{"type":"Feature","geometry":{"type":"Point","coordinates":[126.502154,33.493164]},"properties":{"seq":34815,"regDate":1584137057447,"simpleNm":"(주)제주공조","zipCd":"63145","addr":"제주 제주시 오라삼동","telNo":"064)725-5858","bizType":"3101","bizTypeNm":"전자제품","bizTypeDetail":"가전제품점","salesCd":"168"}},{"type":"Feature","geometry":{"type":"Point","coordinates":[126.245155,33.385108]},"properties":{"seq":508964,"regDate":1584140326465,"simpleNm":"(주)제주미래에너지","zipCd":"63015","addr":"제주 제주시 한림읍","telNo":"064)745-1603","bizType":"3303","bizTypeNm":"연료판매","bizTypeDetail":"가스판매점","salesCd":"168"}},{"type":"Feature","geometry":{"type":"Point","coordinates":[126.463863,33.481613]},"properties":{"seq":656200,"regDate":1584141340398,"simpleNm":"(주)제주미래에너지광동대진가스","zipCd":"63105","addr":"제주 제주시 노형동","telNo":"064)721-4888","bizType":"3303","bizTypeNm":"연료판매","bizTypeDetail":"가스판매점","salesCd":"168"}},{"type":"Feature","geometry":{"type":"Point","coordinates":[126.530759,33.50446]},"properties":{"seq":4026468,"regDate":1600380544499,"simpleNm":"(주)진산우드","zipCd":"63196","addr":"제주 제주시 동광로9길 39","telNo":"064)753-9203","bizType":"3401","bizTypeNm":"건축관련업","bizTypeDetail":"건축자재","salesCd":"165"}},{"type":"Feature","geometry":{"type":"Point","coordinates":[126.4343,33.435188]},"properties":{"seq":4516665,"regDate":1637618772954,"simpleNm":"(주)창우기업","zipCd":"63064","addr":"제주 제주시 애월읍 광령평화2길 117","telNo":"064)746-2568","bizType":"3401","bizTypeNm":"건축관련업","bizTypeDetail":"건축자재","salesCd":"167"}},{"type":"Feature","geometry":{"type":"Point","coordinates":[126.515386,33.465847]},"properties":{"seq":1179423,"regDate":1584145114279,"simpleNm":"(주)탑오피스","zipCd":"63147","addr":"제주 제주시 정실동1길 12-2","telNo":"064)712-6427","bizType":"3001","bizTypeNm":"가구","bizTypeDetail":"일반가구점","salesCd":"166"}},{"type":"Feature","geometry":{"type":"Point","coordinates":[126.263387,33.378138]},"properties":{"seq":3398739,"regDate":1584159560037,"simpleNm":"(주)페인트닥터","zipCd":"63014","addr":"제주 제주시 한림읍 명월성로 345","telNo":"064)796-0545","bizType":"3401","bizTypeNm":"건축관련업","bizTypeDetail":"건축자재","salesCd":"145"}},{"type":"Feature","geometry":{"type":"Point","coordinates":[0,0]},"properties":{"seq":719568,"regDate":1584141789161,"simpleNm":"(주)평화특수유리제경","zipCd":"690838","addr":"제주 제주시 화북1동","telNo":"064)755-9091","bizType":"3401","bizTypeNm":"건축관련업","bizTypeDetail":"건축자재","salesCd":"166"}},{"type":"Feature","geometry":{"type":"Point","coordinates":[0,0]},"properties":{"seq":494537,"regDate":1584140225586,"simpleNm":"(주)한백프라자","zipCd":"690824","addr":"제주 제주시 이도2동","telNo":"064)725-9300","bizType":"6103","bizTypeNm":"사무기기","bizTypeDetail":"컴퓨터기기","salesCd":"167"}},{"type":"Feature","geometry":{"type":"Point","coordinates":[126.532365,33.25712]},"properties":{"seq":646489,"regDate":1584141272132,"simpleNm":"(주)한솔종합OA","zipCd":"63569","addr":"제주 서귀포시 호근서호로 79","telNo":"064)732-4223","bizType":"6101","bizTypeNm":"사무기기","bizTypeDetail":"사무용기기","salesCd":"165"}},{"type":"Feature","geometry":{"type":"Point","coordinates":[126.251008,33.225877]},"properties":{"seq":3986134,"regDate":1597443065560,"simpleNm":"(주)현대종합농자재","zipCd":"63507","addr":"제주 서귀포시 대정읍 동일하모로 186","telNo":"064)794-2120","bizType":"3403","bizTypeNm":"건축관련업","bizTypeDetail":"철물점","salesCd":"166"}},{"type":"Feature","geometry":{"type":"Point","coordinates":[126.576153,33.458951]},"properties":{"seq":1124419,"regDate":1584144723473,"simpleNm":"(주)효성이앤지","zipCd":"63311","addr":"제주 제주시 첨단동길 59","telNo":"064)751-5333","bizType":"3101","bizTypeNm":"전자제품","bizTypeDetail":"가전제품점","salesCd":"167"}},{"type":"Feature","geometry":{"type":"Point","coordinates":[126.473683,33.481542]},"properties":{"seq":571111,"regDate":1584140758396,"simpleNm":"114그릇백화점","zipCd":"63088","addr":"제주 제주시 노형로 344","telNo":"064)749-1140","bizType":"3299","bizTypeNm":"주방용품","bizTypeDetail":"기타 주방용품","salesCd":"165"}},{"type":"Feature","geometry":{"type":"Point","coordinates":[126.604171,33.301238]},"properties":{"seq":2202626,"regDate":1584151955755,"simpleNm":"153홈케어","zipCd":"63607","addr":"제주 서귀포시 남원읍 하례광장로 33-3","telNo":"02)2604-0675","bizType":"3408","bizTypeNm":"건축관련업","bizTypeDetail":"주택,건설","salesCd":"145"}},{"type":"Feature","geometry":{"type":"Point","coordinates":[126.54598,33.260357]},"properties":{"seq":1865088,"regDate":1584149913710,"simpleNm":"1등가스","zipCd":"63583","addr":"제주 서귀포시 서홍로69번길 109","telNo":"064)762-0999","bizType":"3303","bizTypeNm":"연료판매","bizTypeDetail":"가스판매점","salesCd":"160"}},{"type":"Feature","geometry":{"type":"Point","coordinates":[126.267046,33.412631]},"properties":{"seq":3992022,"regDate":1597961555335,"simpleNm":"24시닥트","zipCd":"63029","addr":"제주 제주시 한림읍 한림남1길 21","telNo":"064)000-0000","bizType":"3408","bizTypeNm":"건축관련업","bizTypeDetail":"주택,건설","salesCd":"145"}},{"type":"Feature","geometry":{"type":"Point","coordinates":[126.456887,33.493311]},"properties":{"seq":562705,"regDate":1584140699698,"simpleNm":"24시잉크은행","zipCd":"63109","addr":"제주 제주시 오도2길 32","telNo":"064)713-1283","bizType":"6103","bizTypeNm":"사무기기","bizTypeDetail":"컴퓨터기기","salesCd":"145"}},{"type":"Feature","geometry":{"type":"Point","coordinates":[126.250465,33.221574]},"properties":{"seq":2116361,"regDate":1584151428433,"simpleNm":"365 페인트 삼화","zipCd":"63507","addr":"제주 서귀포시 대정읍 하모상가로 15","telNo":"064)792-7991","bizType":"3401","bizTypeNm":"건축관련업","bizTypeDetail":"건축자재","salesCd":"145"}},{"type":"Feature","geometry":{"type":"Point","coordinates":[126.645473,33.286972]},"properties":{"seq":2440922,"regDate":1584153421617,"simpleNm":"365가스","zipCd":"63609","addr":"제주 서귀포시 남원읍 중산간동로 6978","telNo":"064)764-0084","bizType":"3303","bizTypeNm":"연료판매","bizTypeDetail":"가스판매점","salesCd":"160"}},{"type":"Feature","geometry":{"type":"Point","coordinates":[126.536249,33.510555]},"properties":{"seq":4512032,"regDate":1637187110912,"simpleNm":"88 펌프 보일러","zipCd":"63267","addr":"제주 제주시 동문로16길 43-1","telNo":"064)0000-0000","bizType":"3102","bizTypeNm":"전자제품","bizTypeDetail":"냉난방기구","salesCd":"145"}},{"type":"Feature","geometry":{"type":"Point","coordinates":[126.562436,33.252063]},"properties":{"seq":89609,"regDate":1584137447712,"simpleNm":"<주>하나정보프라자","zipCd":"63590","addr":"제주 서귀포시 동문로 9","telNo":"064)762-0158","bizType":"6103","bizTypeNm":"사무기기","bizTypeDetail":"컴퓨터기기","salesCd":"145"}},{"type":"Feature","geometry":{"type":"Point","coordinates":[126.483069,33.250467]},"properties":{"seq":2332045,"regDate":1584152749432,"simpleNm":"ACE TECH","zipCd":"63558","addr":"제주 서귀포시 일주서로 234","telNo":"064)739-8982","bizType":"3403","bizTypeNm":"건축관련업","bizTypeDetail":"철물점","salesCd":"160"}},{"type":"Feature","geometry":{"type":"Point","coordinates":[126.490475,33.501406]},"properties":{"seq":1555813,"regDate":1584147740011,"simpleNm":"BS코리아제주","zipCd":"63116","addr":"제주 제주시 다호5길 3","telNo":"070)8900-5357","bizType":"3299","bizTypeNm":"주방용품","bizTypeDetail":"기타 주방용품","salesCd":"145"}},{"type":"Feature","geometry":{"type":"Point","coordinates":[126.514448,33.509931]},"properties":{"seq":4435714,"regDate":1631138933145,"simpleNm":"DONGYANG EandP","zipCd":"63174","addr":"제주 제주시 용담로 120","telNo":"064)758-7979","bizType":"3401","bizTypeNm":"건축관련업","bizTypeDetail":"건축자재","salesCd":"145"}},{"type":"Feature","geometry":{"type":"Point","coordinates":[126.47445,33.490512]},"properties":{"seq":492673,"regDate":1584140211483,"simpleNm":"GALLERY낭","zipCd":"63095","addr":"제주 제주시 노형동","telNo":"064)712-2725","bizType":"3001","bizTypeNm":"가구","bizTypeDetail":"일반가구점","salesCd":"145"}},{"type":"Feature","geometry":{"type":"Point","coordinates":[126.547119,33.471605]},"properties":{"seq":1411523,"regDate":1584146759622,"simpleNm":"JEJU푸른바다캔들","zipCd":"63248","addr":"제주 제주시 인다14길 15","telNo":"064)784-5112","bizType":"3203","bizTypeNm":"주방용품","bizTypeDetail":"주방 및 가정용품점","salesCd":"145"}},{"type":"Feature","geometry":{"type":"Point","coordinates":[126.473288,33.481223]},"properties":{"seq":423693,"regDate":1584139747997,"simpleNm":"JK카페전문점 카페누리","zipCd":"63088","addr":"제주 제주시 노형로 340","telNo":"064)747-4001","bizType":"3402","bizTypeNm":"건축관련업","bizTypeDetail":"기계류 건축설비","salesCd":"145"}},{"type":"Feature","geometry":{"type":"Point","coordinates":[126.588896,33.516304]},"properties":{"seq":1813088,"regDate":1584149579053,"simpleNm":"JM LED조명","zipCd":"63316","addr":"제주 제주시 삼봉로 57","telNo":"064)725-3215","bizType":"3201","bizTypeNm":"전자제품","bizTypeDetail":"조명 전기기구점","salesCd":"145"}},{"type":"Feature","geometry":{"type":"Point","coordinates":[126.539161,33.50546]},"properties":{"seq":1320972,"regDate":1584146123874,"simpleNm":"KSI통신","zipCd":"63275","addr":"제주 제주시 일도이동","telNo":"064)723-6611","bizType":"6102","bizTypeNm":"사무기기","bizTypeDetail":"정보통신기기","salesCd":"145"}},{"type":"Feature","geometry":{"type":"Point","coordinates":[0,0]},"properties":{"seq":710051,"regDate":1584141728169,"simpleNm":"KS건재","zipCd":"690826","addr":"제주 제주시 이도2동","telNo":"064)756-7745","bizType":"3401","bizTypeNm":"건축관련업","bizTypeDetail":"건축자재","salesCd":"166"}},{"type":"Feature","geometry":{"type":"Point","coordinates":[126.473067,33.491866]},"properties":{"seq":3683025,"regDate":1584161431211,"simpleNm":"LED 우리조명","zipCd":"63095","addr":"제주 제주시 월랑로 80","telNo":"064)744-0300","bizType":"3201","bizTypeNm":"전자제품","bizTypeDetail":"조명 전기기구점","salesCd":"145"}},{"type":"Feature","geometry":{"type":"Point","coordinates":[126.264854,33.409652]},"properties":{"seq":18110,"regDate":1584136946048,"simpleNm":"LG전자베스트샵한림점","zipCd":"63013","addr":"제주 제주시 한림읍 한림상로 110","telNo":"064)796-3636","bizType":"3101","bizTypeNm":"전자제품","bizTypeDetail":"가전제품점","salesCd":"145"}},{"type":"Feature","geometry":{"type":"Point","coordinates":[126.264443,33.414542]},"properties":{"seq":194968,"regDate":1584138168180,"simpleNm":"LG전자한림센타","zipCd":"63032","addr":"제주 제주시 한림읍 한림로 668","telNo":"064)796-2121","bizType":"3101","bizTypeNm":"전자제품","bizTypeDetail":"가전제품점","salesCd":"145"}},{"type":"Feature","geometry":{"type":"Point","coordinates":[126.832486,33.325212]},"properties":{"seq":38109,"regDate":1584137079485,"simpleNm":"LG표선대리점","zipCd":"63629","addr":"제주 서귀포시 표선면","telNo":"064)787-0349","bizType":"3101","bizTypeNm":"전자제품","bizTypeDetail":"가전제품점","salesCd":"145"}},{"type":"Feature","geometry":{"type":"Point","coordinates":[126.519956,33.498961]},"properties":{"seq":954769,"regDate":1584143428379,"simpleNm":"MASTER O A","zipCd":"63186","addr":"제주 제주시 서사로 149-1","telNo":"070)4159-6246","bizType":"6103","bizTypeNm":"사무기기","bizTypeDetail":"컴퓨터기기","salesCd":"145"}},{"type":"Feature","geometry":{"type":"Point","coordinates":[126.537585,33.496183]},"properties":{"seq":179447,"regDate":1584138062167,"simpleNm":"OABANK","zipCd":"63224","addr":"제주 제주시 오복6길 7","telNo":"064)721-6996","bizType":"6101","bizTypeNm":"사무기기","bizTypeDetail":"사무용기기","salesCd":"145"}},{"type":"Feature","geometry":{"type":"Point","coordinates":[126.539361,33.517946]},"properties":{"seq":2764001,"regDate":1584155440661,"simpleNm":"OK종합주방","zipCd":"63283","addr":"제주 제주시 임항로 251","telNo":"064)724-0752","bizType":"3202","bizTypeNm":"주방용품","bizTypeDetail":"주방기구점","salesCd":"165"}},{"type":"Feature","geometry":{"type":"Point","coordinates":[126.474066,33.252496]},"properties":{"seq":4737188,"regDate":1655158017395,"simpleNm":"Ob","zipCd":"63561","addr":"제주 서귀포시 일주서로 323","telNo":"064)000-0000","bizType":"3203","bizTypeNm":"주방용품","bizTypeDetail":"주방 및 가정용품점","salesCd":"145"}},{"type":"Feature","geometry":{"type":"Point","coordinates":[126.428619,33.247014]},"properties":{"seq":403222,"regDate":1584139603502,"simpleNm":"PC구조대","zipCd":"63546","addr":"제주 서귀포시 중문관광로301번길 7","telNo":"064)767-1190","bizType":"6103","bizTypeNm":"사무기기","bizTypeDetail":"컴퓨터기기","salesCd":"145"}},{"type":"Feature","geometry":{"type":"Point","coordinates":[126.526808,33.495473]},"properties":{"seq":859898,"regDate":1584142776493,"simpleNm":"PC하나로(탐라지원)","zipCd":"63201","addr":"제주 제주시 도남동","telNo":"064)752-6765","bizType":"6103","bizTypeNm":"사무기기","bizTypeDetail":"컴퓨터기기","salesCd":"145"}},{"type":"Feature","geometry":{"type":"Point","coordinates":[0,0]},"properties":{"seq":829885,"regDate":1584142575064,"simpleNm":"SM코리아","zipCd":"690836","addr":"제주 제주시 일도1동","telNo":"064)751-6362","bizType":"3203","bizTypeNm":"주방용품","bizTypeDetail":"주방 및 가정용품점","salesCd":"145"}},{"type":"Feature","geometry":{"type":"Point","coordinates":[126.576514,33.521596]},"properties":{"seq":3705095,"regDate":1584161576273,"simpleNm":"Wind Music 제주","zipCd":"63320","addr":"제주 제주시 일주동로 295","telNo":"064)000-0000","bizType":"6110","bizTypeNm":"악기","bizTypeDetail":"기타악기판매점","salesCd":"145"}},{"type":"Feature","geometry":{"type":"Point","coordinates":[126.537619,33.493581]},"properties":{"seq":4211843,"regDate":1615327753881,"simpleNm":"가가엘이디","zipCd":"63223","addr":"제주 제주시 오복2길 31-10","telNo":"064)000-0000","bizType":"3201","bizTypeNm":"전자제품","bizTypeDetail":"조명 전기기구점","salesCd":"145"}},{"type":"Feature","geometry":{"type":"Point","coordinates":[126.483374,33.494235]},"properties":{"seq":285821,"regDate":1584138807722,"simpleNm":"가고파천막공업사","zipCd":"63116","addr":"제주 제주시 연동","telNo":"064)749-3222","bizType":"3405","bizTypeNm":"건축관련업","bizTypeDetail":"지물 및 천막","salesCd":"145"}},{"type":"Feature","geometry":{"type":"Point","coordinates":[0,0]},"properties":{"seq":41339,"regDate":1584137100091,"simpleNm":"가구갤러리","zipCd":"690810","addr":"제주 제주시 삼도1동","telNo":"064)721-4945","bizType":"3202","bizTypeNm":"주방용품","bizTypeDetail":"주방기구점","salesCd":"145"}},{"type":"Feature","geometry":{"type":"Point","coordinates":[126.517454,33.511442]},"properties":{"seq":4459214,"regDate":1633126326563,"simpleNm":"가구세상","zipCd":"63154","addr":"제주 제주시 서문로 60","telNo":"064)111-1111","bizType":"3001","bizTypeNm":"가구","bizTypeDetail":"일반가구점","salesCd":"145"}},{"type":"Feature","geometry":{"type":"Point","coordinates":[126.574952,33.521378]},"properties":{"seq":1586678,"regDate":1584147965620,"simpleNm":"가구아울렛 매트리스 소파","zipCd":"63288","addr":"제주 제주시 일주동로 281","telNo":"064)759-7597","bizType":"3001","bizTypeNm":"가구","bizTypeDetail":"일반가구점","salesCd":"145"}},{"type":"Feature","geometry":{"type":"Point","coordinates":[0,0]},"properties":{"seq":94739,"regDate":1584137481889,"simpleNm":"가구제주","zipCd":"690828","addr":"제주 제주시 이도1동","telNo":"064)752-8534","bizType":"3002","bizTypeNm":"가구","bizTypeDetail":"철재가구점","salesCd":"160"}},{"type":"Feature","geometry":{"type":"Point","coordinates":[126.571877,33.265637]},"properties":{"seq":2586583,"regDate":1584154311629,"simpleNm":"가구프라자","zipCd":"63579","addr":"제주 서귀포시 중산간동로 7904","telNo":"064)732-8245","bizType":"3001","bizTypeNm":"가구","bizTypeDetail":"일반가구점","salesCd":"145"}},{"type":"Feature","geometry":{"type":"Point","coordinates":[126.51681,33.51113]},"properties":{"seq":2079747,"regDate":1584151203733,"simpleNm":"가구플러스","zipCd":"63154","addr":"제주 제주시 서문로 52-1","telNo":"064)725-1145","bizType":"3001","bizTypeNm":"가구","bizTypeDetail":"일반가구점","salesCd":"160"}},{"type":"Feature","geometry":{"type":"Point","coordinates":[126.581022,33.521431]},"properties":{"seq":343778,"regDate":1584139205435,"simpleNm":"가나안천막공업사","zipCd":"63319","addr":"제주 제주시 일주동로 335","telNo":"064)755-6418","bizType":"3405","bizTypeNm":"건축관련업","bizTypeDetail":"지물 및 천막","salesCd":"145"}},{"type":"Feature","geometry":{"type":"Point","coordinates":[126.510109,33.509109]},"properties":{"seq":4169148,"regDate":1611785442332,"simpleNm":"가나유리알미늄","zipCd":"63160","addr":"제주 제주시 용화로 64","telNo":"064)111-1111","bizType":"3401","bizTypeNm":"건축관련업","bizTypeDetail":"건축자재","salesCd":"145"}},{"type":"Feature","geometry":{"type":"Point","coordinates":[126.266041,33.222945]},"properties":{"seq":1382100,"regDate":1584146554838,"simpleNm":"가나종합가스","zipCd":"63512","addr":"제주 서귀포시 대정읍 송악관광로 117","telNo":"064)794-8882","bizType":"3303","bizTypeNm":"연료판매","bizTypeDetail":"가스판매점","salesCd":"165"}},{"type":"Feature","geometry":{"type":"Point","coordinates":[126.530675,33.493526]},"properties":{"seq":82258,"regDate":1584137390492,"simpleNm":"가나종합설비","zipCd":"63206","addr":"제주 제주시 신성로10길 37","telNo":"064)725-0445","bizType":"3408","bizTypeNm":"건축관련업","bizTypeDetail":"주택,건설","salesCd":"145"}},{"type":"Feature","geometry":{"type":"Point","coordinates":[126.491251,33.47677]},"properties":{"seq":588458,"regDate":1584140869526,"simpleNm":"가보트바이올린작업실","zipCd":"690703","addr":"제주 제주시 연동","telNo":"064)742-3575","bizType":"6110","bizTypeNm":"악기","bizTypeDetail":"기타악기판매점","salesCd":"145"}},{"type":"Feature","geometry":{"type":"Point","coordinates":[126.575392,33.25251]},"properties":{"seq":913704,"regDate":1584143150278,"simpleNm":"가사리건설","zipCd":"63597","addr":"제주 서귀포시 태평로 548-1","telNo":"064)763-5508","bizType":"3401","bizTypeNm":"건축관련업","bizTypeDetail":"건축자재","salesCd":"145"}},{"type":"Feature","geometry":{"type":"Point","coordinates":[126.718482,33.280804]},"properties":{"seq":2758033,"regDate":1584155402700,"simpleNm":"가스친구","zipCd":"63621","addr":"제주 서귀포시 남원읍 남원체육관로 311","telNo":"064)764-7899","bizType":"3303","bizTypeNm":"연료판매","bizTypeDetail":"가스판매점","salesCd":"165"}},{"type":"Feature","geometry":{"type":"Point","coordinates":[126.51055,33.488851]},"properties":{"seq":2210885,"regDate":1584152006738,"simpleNm":"가스할인마트","zipCd":"63145","addr":"제주 제주시 연사길 74-3","telNo":"064)744-0450","bizType":"3303","bizTypeNm":"연료판매","bizTypeDetail":"가스판매점","salesCd":"165"}},{"type":"Feature","geometry":{"type":"Point","coordinates":[126.593515,33.494525]},"properties":{"seq":3994937,"regDate":1598307257147,"simpleNm":"가온상사","zipCd":"63327","addr":"제주 제주시 삼봉로 317","telNo":"064)751-6631","bizType":"3401","bizTypeNm":"건축관련업","bizTypeDetail":"건축자재","salesCd":"165"}},{"type":"Feature","geometry":{"type":"Point","coordinates":[0,0]},"properties":{"seq":528438,"regDate":1584140463408,"simpleNm":"가인방가구","zipCd":"690823","addr":"제주 제주시 용담2동","telNo":"064)711-5483","bizType":"3001","bizTypeNm":"가구","bizTypeDetail":"일반가구점","salesCd":"160"}},{"type":"Feature","geometry":{"type":"Point","coordinates":[126.401344,33.42763]},"properties":{"seq":2248333,"regDate":1584152234649,"simpleNm":"가호설비","zipCd":"63067","addr":"제주 제주시 애월읍 유수암로 189","telNo":"064)747-8022","bizType":"3402","bizTypeNm":"건축관련업","bizTypeDetail":"기계류 건축설비","salesCd":"145"}},{"type":"Feature","geometry":{"type":"Point","coordinates":[126.514886,33.509385]},"properties":{"seq":3778096,"regDate":1584162068864,"simpleNm":"간세다리 작업실","zipCd":"63174","addr":"제주 제주시 용담로18길 3","telNo":"064)111-1111","bizType":"3404","bizTypeNm":"건축관련업","bizTypeDetail":"실내장식","salesCd":"145"}},{"type":"Feature","geometry":{"type":"Point","coordinates":[126.545092,33.503664]},"properties":{"seq":305161,"regDate":1584138940106,"simpleNm":"갈릴리기업","zipCd":"63258","addr":"제주 제주시 연수로4길 22","telNo":"064)721-9146","bizType":"3401","bizTypeNm":"건축관련업","bizTypeDetail":"건축자재","salesCd":"145"}},{"type":"Feature","geometry":{"type":"Point","coordinates":[126.522241,33.504911]},"properties":{"seq":599045,"regDate":1584140942070,"simpleNm":"갈릴리컴퓨터","zipCd":"63178","addr":"제주 제주시 남성로22길 58","telNo":"064)702-6521","bizType":"6103","bizTypeNm":"사무기기","bizTypeDetail":"컴퓨터기기","salesCd":"145"}},{"type":"Feature","geometry":{"type":"Point","coordinates":[0,0]},"properties":{"seq":29361,"regDate":1584137022593,"simpleNm":"강남장식","zipCd":"690829","addr":"제주 제주시 이도1동","telNo":"064)723-6123","bizType":"3405","bizTypeNm":"건축관련업","bizTypeDetail":"지물 및 천막","salesCd":"145"}},{"type":"Feature","geometry":{"type":"Point","coordinates":[0,0]},"properties":{"seq":745200,"regDate":1584141960870,"simpleNm":"강남천막사","zipCd":"690819","addr":"제주 제주시 용담1동","telNo":"064)751-8313","bizType":"3405","bizTypeNm":"건축관련업","bizTypeDetail":"지물 및 천막","salesCd":"145"}},{"type":"Feature","geometry":{"type":"Point","coordinates":[126.567949,33.249503]},"properties":{"seq":964730,"regDate":1584143501180,"simpleNm":"강남태양열 서귀포전문점","zipCd":"63590","addr":"제주 서귀포시 동홍로 12","telNo":"064)733-4690","bizType":"3102","bizTypeNm":"전자제품","bizTypeDetail":"냉난방기구","salesCd":"145"}},{"type":"Feature","geometry":{"type":"Point","coordinates":[126.560775,33.251552]},"properties":{"seq":644614,"regDate":1584141258238,"simpleNm":"강남태양열서귀포대리점","zipCd":"63592","addr":"제주 서귀포시 서귀동","telNo":"064)763-3020","bizType":"3102","bizTypeNm":"전자제품","bizTypeDetail":"냉난방기구","salesCd":"145"}},{"type":"Feature","geometry":{"type":"Point","coordinates":[126.488258,33.493561]},"properties":{"seq":1698387,"regDate":1584148763425,"simpleNm":"강동주방","zipCd":"63126","addr":"제주 제주시 일주서로 7878","telNo":"064)743-7205","bizType":"3203","bizTypeNm":"주방용품","bizTypeDetail":"주방 및 가정용품점","salesCd":"160"}},{"type":"Feature","geometry":{"type":"Point","coordinates":[126.542944,33.50795]},"properties":{"seq":1949119,"regDate":1584150413278,"simpleNm":"강산조명","zipCd":"63307","addr":"제주 제주시 천수동로 19","telNo":"064)751-0524","bizType":"3201","bizTypeNm":"전자제품","bizTypeDetail":"조명 전기기구점","salesCd":"145"}},{"type":"Feature","geometry":{"type":"Point","coordinates":[126.831903,33.323425]},"properties":{"seq":806039,"regDate":1584142393120,"simpleNm":"강진상회","zipCd":"63629","addr":"제주 서귀포시 표선면","telNo":"064)787-0651","bizType":"3203","bizTypeNm":"주방용품","bizTypeDetail":"주방 및 가정용품점","salesCd":"145"}},{"type":"Feature","geometry":{"type":"Point","coordinates":[0,0]},"properties":{"seq":28019,"regDate":1584137014210,"simpleNm":"거목당","zipCd":"690812","addr":"제주 제주시 삼도1동","telNo":"064)753-9383","bizType":"3001","bizTypeNm":"가구","bizTypeDetail":"일반가구점","salesCd":"145"}},{"type":"Feature","geometry":{"type":"Point","coordinates":[126.710828,33.292534]},"properties":{"seq":1834967,"regDate":1584149733556,"simpleNm":"거북가스","zipCd":"63619","addr":"제주 서귀포시 남원읍 남한로 168,","telNo":"064)764-2211","bizType":"3303","bizTypeNm":"연료판매","bizTypeDetail":"가스판매점","salesCd":"168"}},{"type":"Feature","geometry":{"type":"Point","coordinates":[126.710828,33.292534]},"properties":{"seq":4589817,"regDate":1643148398217,"simpleNm":"거북위미가스","zipCd":"63619","addr":"제주 서귀포시 남원읍 남한로 168","telNo":"064)764-2211","bizType":"3303","bizTypeNm":"연료판매","bizTypeDetail":"가스판매점","salesCd":"145"}},{"type":"Feature","geometry":{"type":"Point","coordinates":[126.536375,33.495185]},"properties":{"seq":2182191,"regDate":1584151831537,"simpleNm":"거상유통","zipCd":"63223","addr":"제주 제주시 남광북3길 21","telNo":"064)752-1440","bizType":"3203","bizTypeNm":"주방용품","bizTypeDetail":"주방 및 가정용품점","salesCd":"145"}},{"type":"Feature","geometry":{"type":"Point","coordinates":[126.426918,33.483141]},"properties":{"seq":4005068,"regDate":1598998465373,"simpleNm":"거성가구","zipCd":"63072","addr":"제주 제주시 우령서로18길 35","telNo":"064)748-8088","bizType":"3001","bizTypeNm":"가구","bizTypeDetail":"일반가구점","salesCd":"145"}},{"type":"Feature","geometry":{"type":"Point","coordinates":[126.431343,33.485873]},"properties":{"seq":2592266,"regDate":1584154347169,"simpleNm":"건강한 편백나라","zipCd":"63070","addr":"제주 제주시 우정로15길 2","telNo":"064)746-7768","bizType":"3203","bizTypeNm":"주방용품","bizTypeDetail":"주방 및 가정용품점","salesCd":"145"}},{"type":"Feature","geometry":{"type":"Point","coordinates":[126.864467,33.515883]},"properties":{"seq":1290838,"regDate":1584145903083,"simpleNm":"건도창호","zipCd":"63362","addr":"제주 제주시 구좌읍 세종로 37","telNo":"064)783-0503","bizType":"3405","bizTypeNm":"건축관련업","bizTypeDetail":"지물 및 천막","salesCd":"145"}},{"type":"Feature","geometry":{"type":"Point","coordinates":[0,0]},"properties":{"seq":2404487,"regDate":1584153198479,"simpleNm":"건영계전제주","zipCd":"63627","addr":"제주 서귀포시 표선면 번영로 3150","telNo":"064)787-4313","bizType":"3201","bizTypeNm":"전자제품","bizTypeDetail":"조명 전기기구점","salesCd":"165"}},{"type":"Feature","geometry":{"type":"Point","coordinates":[126.499301,33.478035]},"properties":{"seq":116001,"regDate":1584137625645,"simpleNm":"건우건재","zipCd":"63142","addr":"제주 제주시 연동","telNo":"064)712-0034","bizType":"3403","bizTypeNm":"건축관련업","bizTypeDetail":"철물점","salesCd":"166"}},{"type":"Feature","geometry":{"type":"Point","coordinates":[126.548529,33.464065]},"properties":{"seq":1424018,"regDate":1584146840106,"simpleNm":"건우인더스","zipCd":"63241","addr":"제주 제주시 보배길 7","telNo":"064)725-7711","bizType":"3403","bizTypeNm":"건축관련업","bizTypeDetail":"철물점","salesCd":"165"}},{"type":"Feature","geometry":{"type":"Point","coordinates":[126.734771,33.435379]},"properties":{"seq":1639721,"regDate":1584148346703,"simpleNm":"건우인트라주식회사","zipCd":"63355","addr":"제주 제주시 구좌읍","telNo":"064)782-5001","bizType":"3401","bizTypeNm":"건축관련업","bizTypeDetail":"건축자재","salesCd":"168"}},{"type":"Feature","geometry":{"type":"Point","coordinates":[126.682985,33.492248]},"properties":{"seq":3052761,"regDate":1584157276544,"simpleNm":"건우창호","zipCd":"63342","addr":"제주 제주시 조천읍 중산간동로 958","telNo":"064)725-9315","bizType":"3408","bizTypeNm":"건축관련업","bizTypeDetail":"주택,건설","salesCd":"145"}},{"type":"Feature","geometry":{"type":"Point","coordinates":[0,0]},"properties":{"seq":643588,"regDate":1584141250365,"simpleNm":"건축자재홈센타","zipCd":"690838","addr":"제주 제주시 화북1동","telNo":"064)757-5555","bizType":"3401","bizTypeNm":"건축관련업","bizTypeDetail":"건축자재","salesCd":"145"}},{"type":"Feature","geometry":{"type":"Point","coordinates":[0,0]},"properties":{"seq":525566,"regDate":1584140443817,"simpleNm":"걸궁","zipCd":"63253","addr":"제주 제주시 일도이동","telNo":"064)753-4773","bizType":"6110","bizTypeNm":"악기","bizTypeDetail":"기타악기판매점","salesCd":"145"}},{"type":"Feature","geometry":{"type":"Point","coordinates":[126.565911,33.248609]},"properties":{"seq":3148251,"regDate":1584157890223,"simpleNm":"게른","zipCd":"63592","addr":"제주 서귀포시 중정로 1","telNo":"064)000-0000","bizType":"3404","bizTypeNm":"건축관련업","bizTypeDetail":"실내장식","salesCd":"145"}},{"type":"Feature","geometry":{"type":"Point","coordinates":[0,0]},"properties":{"seq":258581,"regDate":1584138607800,"simpleNm":"경남천막공업사","zipCd":"690011","addr":"제주 제주시 일도1동","telNo":"064)752-6272","bizType":"3405","bizTypeNm":"건축관련업","bizTypeDetail":"지물 및 천막","salesCd":"145"}},{"type":"Feature","geometry":{"type":"Point","coordinates":[126.78534,33.551859]},"properties":{"seq":3841430,"regDate":1588024844168,"simpleNm":"경동보일러동부설치점 수기업","zipCd":"63349","addr":"제주 제주시 구좌읍 일주동로 2394","telNo":"064)000-0000","bizType":"3408","bizTypeNm":"건축관련업","bizTypeDetail":"주택,건설","salesCd":"145"}},{"type":"Feature","geometry":{"type":"Point","coordinates":[126.54347,33.495516]},"properties":{"seq":375273,"regDate":1584139418382,"simpleNm":"경동보일러제주총판서비스","zipCd":"63227","addr":"제주 제주시 남광로 80-2","telNo":"064)721-4501","bizType":"3402","bizTypeNm":"건축관련업","bizTypeDetail":"기계류 건축설비","salesCd":"166"}},{"type":"Feature","geometry":{"type":"Point","coordinates":[126.532495,33.510444]},"properties":{"seq":223410,"regDate":1584138374006,"simpleNm":"경동설비","zipCd":"63265","addr":"제주 제주시 신산로 33-1","telNo":"064)796-2110","bizType":"3402","bizTypeNm":"건축관련업","bizTypeDetail":"기계류 건축설비","salesCd":"145"}},{"type":"Feature","geometry":{"type":"Point","coordinates":[126.512499,33.461485]},"properties":{"seq":2975623,"regDate":1584156780013,"simpleNm":"경동솔라시티","zipCd":"63147","addr":"제주 제주시 정실6길 72","telNo":"064)746-3030","bizType":"3499","bizTypeNm":"건축관련업","bizTypeDetail":"기타 건축자재","salesCd":"145"}},{"type":"Feature","geometry":{"type":"Point","coordinates":[0,0]},"properties":{"seq":815270,"regDate":1584142462556,"simpleNm":"경동종합기계","zipCd":"690062","addr":"제주 제주시 화북2동","telNo":"064)756-2280","bizType":"3402","bizTypeNm":"건축관련업","bizTypeDetail":"기계류 건축설비","salesCd":"145"}},{"type":"Feature","geometry":{"type":"Point","coordinates":[126.536231,33.496734]},"properties":{"seq":1508049,"regDate":1584147405730,"simpleNm":"경동종합철물","zipCd":"63211","addr":"제주 제주시 연삼로 425","telNo":"064)722-1950","bizType":"3408","bizTypeNm":"건축관련업","bizTypeDetail":"주택,건설","salesCd":"166"}},{"type":"Feature","geometry":{"type":"Point","coordinates":[0,0]},"properties":{"seq":130838,"regDate":1584137726693,"simpleNm":"경동천막사","zipCd":"690819","addr":"제주 제주시 용담1동","telNo":"064)753-3116","bizType":"3405","bizTypeNm":"건축관련업","bizTypeDetail":"지물 및 천막","salesCd":"145"}},{"type":"Feature","geometry":{"type":"Point","coordinates":[0,0]},"properties":{"seq":89352,"regDate":1584137446072,"simpleNm":"경림산업(주)","zipCd":"63048","addr":"제주 제주시 애월읍","telNo":"064)799-0410","bizType":"3401","bizTypeNm":"건축관련업","bizTypeDetail":"건축자재","salesCd":"167"}},{"type":"Feature","geometry":{"type":"Point","coordinates":[126.750589,33.546852]},"properties":{"seq":4840985,"regDate":1661988307808,"simpleNm":"경성가스","zipCd":"63348","addr":"제주 제주시 구좌읍 김녕남6길 52","telNo":"064)783-9944","bizType":"3303","bizTypeNm":"연료판매","bizTypeDetail":"가스판매점","salesCd":"000"}},{"type":"Feature","geometry":{"type":"Point","coordinates":[126.540759,33.513002]},"properties":{"seq":3999274,"regDate":1598479766564,"simpleNm":"경성시스템","zipCd":"63250","addr":"제주 제주시 고마로1길 27","telNo":"064)000-0000","bizType":"3407","bizTypeNm":"건축관련업","bizTypeDetail":"보안경비시스템","salesCd":"145"}},{"type":"Feature","geometry":{"type":"Point","coordinates":[0,0]},"properties":{"seq":30426,"regDate":1584137029260,"simpleNm":"경성주공","zipCd":"63154","addr":"제주 제주시 용담일동","telNo":"064)753-7993","bizType":"3202","bizTypeNm":"주방용품","bizTypeDetail":"주방기구점","salesCd":"145"}},{"type":"Feature","geometry":{"type":"Point","coordinates":[126.590037,33.515508]},"properties":{"seq":3765948,"regDate":1584161988477,"simpleNm":"경은타일","zipCd":"63326","addr":"제주 제주시 연삼로 984","telNo":"064)722-7643","bizType":"3401","bizTypeNm":"건축관련업","bizTypeDetail":"건축자재","salesCd":"145"}},{"type":"Feature","geometry":{"type":"Point","coordinates":[126.520101,33.50624]},"properties":{"seq":1832601,"regDate":1584149719761,"simpleNm":"경인보일러","zipCd":"63171","addr":"제주 제주시 서사로 69","telNo":"064)799-4042","bizType":"3402","bizTypeNm":"건축관련업","bizTypeDetail":"기계류 건축설비","salesCd":"145"}},{"type":"Feature","geometry":{"type":"Point","coordinates":[126.623117,33.531927]},"properties":{"seq":76336,"regDate":1584137343704,"simpleNm":"경제석유","zipCd":"63337","addr":"제주 제주시 조천읍","telNo":"064)752-2829","bizType":"3302","bizTypeNm":"연료판매","bizTypeDetail":"연탄 및 유류판매점","salesCd":"145"}},{"type":"Feature","geometry":{"type":"Point","coordinates":[126.520005,33.50139]},"properties":{"seq":2496082,"regDate":1584153754248,"simpleNm":"경진페인트","zipCd":"63182","addr":"제주 제주시 서사로 123","telNo":"064)756-0227","bizType":"3401","bizTypeNm":"건축관련업","bizTypeDetail":"건축자재","salesCd":"145"}},{"type":"Feature","geometry":{"type":"Point","coordinates":[126.316026,33.945365]},"properties":{"seq":3454062,"regDate":1584159926390,"simpleNm":"경찬금속","zipCd":"63001","addr":"제주 제주시 추자면 묵리2길 67-1","telNo":"064)742-8047","bizType":"3401","bizTypeNm":"건축관련업","bizTypeDetail":"건축자재","salesCd":"145"}},{"type":"Feature","geometry":{"type":"Point","coordinates":[126.484222,33.487776]},"properties":{"seq":295437,"regDate":1584138871138,"simpleNm":"고구려철물상사","zipCd":"63081","addr":"제주 제주시 노형동","telNo":"064)746-2580","bizType":"3403","bizTypeNm":"건축관련업","bizTypeDetail":"철물점","salesCd":"145"}},{"type":"Feature","geometry":{"type":"Point","coordinates":[126.542406,33.495409]},"properties":{"seq":215287,"regDate":1584138315286,"simpleNm":"고려페인트사","zipCd":"63227","addr":"제주 제주시 신설로2길 5-15","telNo":"064)755-1717","bizType":"3401","bizTypeNm":"건축관련업","bizTypeDetail":"건축자재","salesCd":"160"}},{"type":"Feature","geometry":{"type":"Point","coordinates":[126.178903,33.305846]},"properties":{"seq":885025,"regDate":1584142956265,"simpleNm":"고산보일러설비","zipCd":"63008","addr":"제주 제주시 한경면","telNo":"064)773-0847","bizType":"3402","bizTypeNm":"건축관련업","bizTypeDetail":"기계류 건축설비","salesCd":"145"}},{"type":"Feature","geometry":{"type":"Point","coordinates":[126.382175,33.420229]},"properties":{"seq":3806244,"regDate":1585173662324,"simpleNm":"고운인테리어","zipCd":"63072","addr":"제주 제주시 일주서로 7246-5","telNo":"064)000-0000","bizType":"3408","bizTypeNm":"건축관련업","bizTypeDetail":"주택,건설","salesCd":"145"}},{"type":"Feature","geometry":{"type":"Point","coordinates":[126.915457,33.448862]},"properties":{"seq":2624369,"regDate":1584154548383,"simpleNm":"고은가구","zipCd":"63640","addr":"제주 서귀포시 성산읍 동류암로 47-1","telNo":"064)000-0000","bizType":"3001","bizTypeNm":"가구","bizTypeDetail":"일반가구점","salesCd":"145"}},{"type":"Feature","geometry":{"type":"Point","coordinates":[126.544794,33.501505]},"properties":{"seq":27936,"regDate":1584137013693,"simpleNm":"고즈갤러리","zipCd":"63259","addr":"제주 제주시 연삼로 521","telNo":"064)758-6338","bizType":"3001","bizTypeNm":"가구","bizTypeDetail":"일반가구점","salesCd":"145"}},{"type":"Feature","geometry":{"type":"Point","coordinates":[126.533307,33.495449]},"properties":{"seq":4651327,"regDate":1648159717076,"simpleNm":"골드드래곤","zipCd":"63210","addr":"제주 제주시 중앙로 279","telNo":"064)111-1111","bizType":"6102","bizTypeNm":"사무기기","bizTypeDetail":"정보통신기기","salesCd":"145"}},{"type":"Feature","geometry":{"type":"Point","coordinates":[126.496227,33.486341]},"properties":{"seq":606182,"regDate":1584140992644,"simpleNm":"골든음향","zipCd":"63123","addr":"제주 제주시 연동","telNo":"064)745-8088","bizType":"3199","bizTypeNm":"전자제품","bizTypeDetail":"기타 전자제품","salesCd":"145"}},{"type":"Feature","geometry":{"type":"Point","coordinates":[126.544882,33.490861]},"properties":{"seq":4417378,"regDate":1629756369646,"simpleNm":"골든픽","zipCd":"63229","addr":"제주 제주시 연북로 629","telNo":"064)000-0000","bizType":"3408","bizTypeNm":"건축관련업","bizTypeDetail":"주택,건설","salesCd":"145"}},{"type":"Feature","geometry":{"type":"Point","coordinates":[126.258817,33.223292]},"properties":{"seq":2784689,"regDate":1584155571333,"simpleNm":"공간과조명","zipCd":"63510","addr":"제주 서귀포시 대정읍 상모로 286","telNo":"064)000-0000","bizType":"3408","bizTypeNm":"건축관련업","bizTypeDetail":"주택,건설","salesCd":"145"}},{"type":"Feature","geometry":{"type":"Point","coordinates":[126.566892,33.243286]},"properties":{"seq":2187019,"regDate":1584151860717,"simpleNm":"공간조명전기","zipCd":"63596","addr":"제주 서귀포시 소암로 20","telNo":"064)733-6600","bizType":"3201","bizTypeNm":"전자제품","bizTypeDetail":"조명 전기기구점","salesCd":"145"}},{"type":"Feature","geometry":{"type":"Point","coordinates":[126.828728,33.336577]},"properties":{"seq":2217614,"regDate":1584152046064,"simpleNm":"공감조명","zipCd":"63628","addr":"제주 서귀포시 표선면 번영로 3497","telNo":"064)787-9909","bizType":"3201","bizTypeNm":"전자제품","bizTypeDetail":"조명 전기기구점","salesCd":"145"}},{"type":"Feature","geometry":{"type":"Point","coordinates":[126.860063,33.521184]},"properties":{"seq":2478608,"regDate":1584153647531,"simpleNm":"공감조명","zipCd":"63361","addr":"제주 제주시 구좌읍 구좌로 91","telNo":"064)782-6661","bizType":"3201","bizTypeNm":"전자제품","bizTypeDetail":"조명 전기기구점","salesCd":"145"}},{"type":"Feature","geometry":{"type":"Point","coordinates":[126.565261,33.519513]},"properties":{"seq":3758516,"regDate":1584161938078,"simpleNm":"공감하우징","zipCd":"63289","addr":"제주 제주시 진동로 11","telNo":"070)0000-0000","bizType":"3408","bizTypeNm":"건축관련업","bizTypeDetail":"주택,건설","salesCd":"145"}},{"type":"Feature","geometry":{"type":"Point","coordinates":[126.510459,33.492381]},"properties":{"seq":1439953,"regDate":1584146946873,"simpleNm":"공구이마트","zipCd":"63145","addr":"제주 제주시 사평2길 9","telNo":"064)702-0982","bizType":"3403","bizTypeNm":"건축관련업","bizTypeDetail":"철물점","salesCd":"166"}},{"type":"Feature","geometry":{"type":"Point","coordinates":[126.562121,33.264437]},"properties":{"seq":1713592,"regDate":1584148863646,"simpleNm":"공단씽크","zipCd":"63585","addr":"제주 서귀포시 중산간동로 7999","telNo":"064)733-7684","bizType":"3202","bizTypeNm":"주방용품","bizTypeDetail":"주방기구점","salesCd":"145"}},{"type":"Feature","geometry":{"type":"Point","coordinates":[126.542939,33.513406]},"properties":{"seq":394340,"regDate":1584139545273,"simpleNm":"공룡컴퓨터","zipCd":"63284","addr":"제주 제주시 동문로 153","telNo":"064)727-1350","bizType":"6103","bizTypeNm":"사무기기","bizTypeDetail":"컴퓨터기기","salesCd":"160"}},{"type":"Feature","geometry":{"type":"Point","coordinates":[126.528382,33.492973]},"properties":{"seq":193968,"regDate":1584138161756,"simpleNm":"공주종합상사","zipCd":"63205","addr":"제주 제주시 도남로 83","telNo":"064)757-0293","bizType":"3402","bizTypeNm":"건축관련업","bizTypeDetail":"기계류 건축설비","salesCd":"166"}},{"type":"Feature","geometry":{"type":"Point","coordinates":[126.509569,33.508115]},"properties":{"seq":4412922,"regDate":1629324927206,"simpleNm":"공항철물상사","zipCd":"63160","addr":"제주 제주시 용문로 149","telNo":"064)712-1909","bizType":"3403","bizTypeNm":"건축관련업","bizTypeDetail":"철물점","salesCd":"145"}},{"type":"Feature","geometry":{"type":"Point","coordinates":[0,0]},"properties":{"seq":367860,"regDate":1584139368295,"simpleNm":"공항철물설비상사","zipCd":"690823","addr":"제주 제주시 용담2동","telNo":"064)712-1909","bizType":"3403","bizTypeNm":"건축관련업","bizTypeDetail":"철물점","salesCd":"145"}},{"type":"Feature","geometry":{"type":"Point","coordinates":[126.463863,33.481613]},"properties":{"seq":4590784,"regDate":1643148461206,"simpleNm":"광동대진가스","zipCd":"63105","addr":"제주 제주시 오광로 173","telNo":"064)721-4888","bizType":"3303","bizTypeNm":"연료판매","bizTypeDetail":"가스판매점","salesCd":"145"}},{"type":"Feature","geometry":{"type":"Point","coordinates":[0,0]},"properties":{"seq":1943286,"regDate":1584150377332,"simpleNm":"광명석유","zipCd":"63055","addr":"제주 제주시 애월읍","telNo":"064)746-1555","bizType":"3302","bizTypeNm":"연료판매","bizTypeDetail":"연탄 및 유류판매점","salesCd":"145"}},{"type":"Feature","geometry":{"type":"Point","coordinates":[126.515054,33.239756]},"properties":{"seq":232199,"regDate":1584138434985,"simpleNm":"광명종합장식","zipCd":"63573","addr":"제주 서귀포시 법환동","telNo":"064)739-1179","bizType":"3405","bizTypeNm":"건축관련업","bizTypeDetail":"지물 및 천막","salesCd":"145"}},{"type":"Feature","geometry":{"type":"Point","coordinates":[0,0]},"properties":{"seq":73622,"regDate":1584137323755,"simpleNm":"광신앵글","zipCd":"690829","addr":"제주 제주시 이도1동","telNo":"064)722-1124","bizType":"3401","bizTypeNm":"건축관련업","bizTypeDetail":"건축자재","salesCd":"145"}},{"type":"Feature","geometry":{"type":"Point","coordinates":[126.541536,33.49733]},"properties":{"seq":4745468,"regDate":1655417423690,"simpleNm":"광신전기","zipCd":"63225","addr":"제주 제주시 정든로 4","telNo":"064)723-3409","bizType":"3201","bizTypeNm":"전자제품","bizTypeDetail":"조명 전기기구점","salesCd":"145"}},{"type":"Feature","geometry":{"type":"Point","coordinates":[126.527452,33.502474]},"properties":{"seq":193170,"regDate":1584138155471,"simpleNm":"광양건재상사","zipCd":"63198","addr":"제주 제주시 중앙로 186-1","telNo":"064)722-4257","bizType":"3403","bizTypeNm":"건축관련업","bizTypeDetail":"철물점","salesCd":"145"}},{"type":"Feature","geometry":{"type":"Point","coordinates":[126.552752,33.247696]},"properties":{"seq":700311,"regDate":1584141661622,"simpleNm":"광일전기","zipCd":"63594","addr":"제주 서귀포시 서홍동","telNo":"064)762-7278","bizType":"3201","bizTypeNm":"전자제품","bizTypeDetail":"조명 전기기구점","salesCd":"145"}},{"type":"Feature","geometry":{"type":"Point","coordinates":[126.810409,33.308751]},"properties":{"seq":2508306,"regDate":1584153829039,"simpleNm":"광장철물안전마트","zipCd":"63628","addr":"제주 서귀포시 표선면 일주동로 6186","telNo":"064)787-0450","bizType":"3401","bizTypeNm":"건축관련업","bizTypeDetail":"건축자재","salesCd":"145"}},{"type":"Feature","geometry":{"type":"Point","coordinates":[0,0]},"properties":{"seq":254230,"regDate":1584138578473,"simpleNm":"광주천막사","zipCd":"690012","addr":"제주 제주시 일도2동","telNo":"064)757-5328","bizType":"3405","bizTypeNm":"건축관련업","bizTypeDetail":"지물 및 천막","salesCd":"145"}},{"type":"Feature","geometry":{"type":"Point","coordinates":[126.297086,33.96383]},"properties":{"seq":3431139,"regDate":1584159775672,"simpleNm":"광진지업사","zipCd":"63000","addr":"제주 제주시 추자면 대서2길 14","telNo":"064)742-2272","bizType":"3405","bizTypeNm":"건축관련업","bizTypeDetail":"지물 및 천막","salesCd":"145"}},{"type":"Feature","geometry":{"type":"Point","coordinates":[0,0]},"properties":{"seq":181783,"regDate":1584138079112,"simpleNm":"광진철물","zipCd":"690122","addr":"제주 제주시 아라2동","telNo":"064)723-0091","bizType":"3403","bizTypeNm":"건축관련업","bizTypeDetail":"철물점","salesCd":"165"}},{"type":"Feature","geometry":{"type":"Point","coordinates":[126.460984,33.479086]},"properties":{"seq":2072157,"regDate":1584151157300,"simpleNm":"광평가스","zipCd":"63076","addr":"제주 제주시 우평로 47","telNo":null,"bizType":"3303","bizTypeNm":"연료판매","bizTypeDetail":"가스판매점","salesCd":"166"}},{"type":"Feature","geometry":{"type":"Point","coordinates":[126.265098,33.411553]},"properties":{"seq":1129377,"regDate":1584144755129,"simpleNm":"구골디자인","zipCd":"63032","addr":"제주 제주시 한림읍 한림중앙로 36","telNo":"064)796-5665","bizType":"3404","bizTypeNm":"건축관련업","bizTypeDetail":"실내장식","salesCd":"145"}},{"type":"Feature","geometry":{"type":"Point","coordinates":[126.858038,33.517029]},"properties":{"seq":864509,"regDate":1584142806187,"simpleNm":"구좌가스","zipCd":"63361","addr":"제주 제주시 구좌읍 세화남1길 33","telNo":"064)784-5280","bizType":"3303","bizTypeNm":"연료판매","bizTypeDetail":"가스판매점","salesCd":"160"}},{"type":"Feature","geometry":{"type":"Point","coordinates":[126.582731,33.262808]},"properties":{"seq":975713,"regDate":1584143587709,"simpleNm":"국가대표 냉동주방","zipCd":"63604","addr":"제주 서귀포시 516로 101","telNo":"064)733-8114","bizType":"3202","bizTypeNm":"주방용품","bizTypeDetail":"주방기구점","salesCd":"145"}},{"type":"Feature","geometry":{"type":"Point","coordinates":[126.476944,33.493451]},"properties":{"seq":3528816,"regDate":1584160424379,"simpleNm":"국보타일","zipCd":"63095","addr":"제주 제주시 일주서로 7774-1","telNo":"064)0000-0000","bizType":"3401","bizTypeNm":"건축관련업","bizTypeDetail":"건축자재","salesCd":"166"}},{"type":"Feature","geometry":{"type":"Point","coordinates":[126.546499,33.263686]},"properties":{"seq":2798478,"regDate":1584155656621,"simpleNm":"국일합판","zipCd":"63578","addr":"제주 서귀포시 중산간동로 8146-7","telNo":"064)762-5536","bizType":"3401","bizTypeNm":"건축관련업","bizTypeDetail":"건축자재","salesCd":"145"}},{"type":"Feature","geometry":{"type":"Point","coordinates":[126.463863,33.481613]},"properties":{"seq":987990,"regDate":1584143687183,"simpleNm":"국제가스","zipCd":"63105","addr":"제주 제주시 노형동","telNo":"064)712-7255","bizType":"3303","bizTypeNm":"연료판매","bizTypeDetail":"가스판매점","salesCd":"165"}},{"type":"Feature","geometry":{"type":"Point","coordinates":[126.524329,33.513867]},"properties":{"seq":113917,"regDate":1584137610758,"simpleNm":"국제금고","zipCd":"63166","addr":"제주 제주시 칠성로길 12-1","telNo":"064)758-3311","bizType":"3002","bizTypeNm":"가구","bizTypeDetail":"철재가구점","salesCd":"145"}},{"type":"Feature","geometry":{"type":"Point","coordinates":[126.512283,33.492942]},"properties":{"seq":3263961,"regDate":1584158666939,"simpleNm":"국제리빙","zipCd":"63148","addr":"제주 제주시 연삼로 185","telNo":"064)753-3651","bizType":"3202","bizTypeNm":"주방용품","bizTypeDetail":"주방기구점","salesCd":"165"}},{"type":"Feature","geometry":{"type":"Point","coordinates":[126.513561,33.487892]},"properties":{"seq":649890,"regDate":1584141298895,"simpleNm":"국제상사","zipCd":"63145","addr":"제주 제주시 연사2길 10","telNo":"064)745-2396","bizType":"3405","bizTypeNm":"건축관련업","bizTypeDetail":"지물 및 천막","salesCd":"165"}},{"type":"Feature","geometry":{"type":"Point","coordinates":[0,0]},"properties":{"seq":98195,"regDate":1584137508451,"simpleNm":"국제열쇠","zipCd":"690812","addr":"제주 제주시 삼도1동","telNo":"064)757-2903","bizType":"3002","bizTypeNm":"가구","bizTypeDetail":"철재가구점","salesCd":"145"}},{"type":"Feature","geometry":{"type":"Point","coordinates":[126.521792,33.503626]},"properties":{"seq":2026798,"regDate":1584150879669,"simpleNm":"국제전기통신","zipCd":"63180","addr":"제주 제주시 서광로25길 60","telNo":"064)759-0405","bizType":"3402","bizTypeNm":"건축관련업","bizTypeDetail":"기계류 건축설비","salesCd":"145"}},{"type":"Feature","geometry":{"type":"Point","coordinates":[0,0]},"properties":{"seq":153421,"regDate":1584137878254,"simpleNm":"국제종합주방","zipCd":"690162","addr":"제주 제주시 오라2동","telNo":"064)745-0061","bizType":"3203","bizTypeNm":"주방용품","bizTypeDetail":"주방 및 가정용품점","salesCd":"166"}},{"type":"Feature","geometry":{"type":"Point","coordinates":[126.573392,33.265406]},"properties":{"seq":423090,"regDate":1584139743313,"simpleNm":"국제타일건재","zipCd":"63586","addr":"제주 서귀포시 동홍동","telNo":"064)762-8300","bizType":"3401","bizTypeNm":"건축관련업","bizTypeDetail":"건축자재","salesCd":"145"}},{"type":"Feature","geometry":{"type":"Point","coordinates":[126.319757,33.464662]},"properties":{"seq":750295,"regDate":1584141993048,"simpleNm":"국진철물","zipCd":"63073","addr":"제주 제주시 애월읍","telNo":"064)799-2904","bizType":"3403","bizTypeNm":"건축관련업","bizTypeDetail":"철물점","salesCd":"145"}},{"type":"Feature","geometry":{"type":"Point","coordinates":[126.518372,33.512201]},"properties":{"seq":719987,"regDate":1584141791784,"simpleNm":"굿모닝장식","zipCd":"63153","addr":"제주 제주시 서문로 69-1","telNo":"064)751-1221","bizType":"3404","bizTypeNm":"건축관련업","bizTypeDetail":"실내장식","salesCd":"145"}},{"type":"Feature","geometry":{"type":"Point","coordinates":[126.507263,33.513665]},"properties":{"seq":3092987,"regDate":1584157534194,"simpleNm":"굿퍼니처","zipCd":"63151","addr":"제주 제주시 용담로3길 9","telNo":"064)758-3312","bizType":"3001","bizTypeNm":"가구","bizTypeDetail":"일반가구점","salesCd":"145"}},{"type":"Feature","geometry":{"type":"Point","coordinates":[126.565011,33.254193]},"properties":{"seq":37632,"regDate":1584137076070,"simpleNm":"귀뚜라미보일러","zipCd":"63585","addr":"제주 서귀포시 동홍동","telNo":"064)733-9000","bizType":"3102","bizTypeNm":"전자제품","bizTypeDetail":"냉난방기구","salesCd":"165"}},{"type":"Feature","geometry":{"type":"Point","coordinates":[126.624207,33.530938]},"properties":{"seq":499396,"regDate":1584140259400,"simpleNm":"귀뚜라미보일러(동부점)","zipCd":"63336","addr":"제주 제주시 조천읍 일주동로 776","telNo":"064)723-6900","bizType":"3102","bizTypeNm":"전자제품","bizTypeDetail":"냉난방기구","salesCd":"145"}},{"type":"Feature","geometry":{"type":"Point","coordinates":[126.479232,33.489184]},"properties":{"seq":1543059,"regDate":1584147647411,"simpleNm":"귀뚜라미보일러서부점","zipCd":"63097","addr":"제주 제주시 다랑곶4길 32","telNo":"064)805-8520","bizType":"3402","bizTypeNm":"건축관련업","bizTypeDetail":"기계류 건축설비","salesCd":"145"}},{"type":"Feature","geometry":{"type":"Point","coordinates":[0,0]},"properties":{"seq":610406,"regDate":1584141022440,"simpleNm":"귀뚜라미홈시스서부점","zipCd":"690191","addr":"제주 제주시 외도1동","telNo":"064)743-0091","bizType":"3102","bizTypeNm":"전자제품","bizTypeDetail":"냉난방기구","salesCd":"145"}},{"type":"Feature","geometry":{"type":"Point","coordinates":[0,0]},"properties":{"seq":973641,"regDate":1584143572123,"simpleNm":"규옥유리","zipCd":"690834","addr":"제주 제주시 일도2동","telNo":null,"bizType":"3401","bizTypeNm":"건축관련업","bizTypeDetail":"건축자재","salesCd":"145"}},{"type":"Feature","geometry":{"type":"Point","coordinates":[0,0]},"properties":{"seq":48625,"regDate":1584137146057,"simpleNm":"그랜드철제가구","zipCd":"690822","addr":"제주 제주시 용담2동","telNo":"064)746-3617","bizType":"3002","bizTypeNm":"가구","bizTypeDetail":"철재가구점","salesCd":"145"}},{"type":"Feature","geometry":{"type":"Point","coordinates":[126.542017,33.503229]},"properties":{"seq":1480644,"regDate":1584147222186,"simpleNm":"그랜드홈파티스","zipCd":"63215","addr":"제주 제주시 고마로 126","telNo":"064)759-8884","bizType":"3299","bizTypeNm":"주방용품","bizTypeDetail":"기타 주방용품","salesCd":"166"}},{"type":"Feature","geometry":{"type":"Point","coordinates":[126.48787,33.478771]},"properties":{"seq":3637594,"regDate":1584161134107,"simpleNm":"그랜드홈파티스스튜디오한라초점","zipCd":"63140","addr":"제주 제주시 과원북2길 52","telNo":"064)744-7264","bizType":"3203","bizTypeNm":"주방용품","bizTypeDetail":"주방 및 가정용품점","salesCd":"145"}},{"type":"Feature","geometry":{"type":"Point","coordinates":[126.838739,33.333077]},"properties":{"seq":4770678,"regDate":1656972533826,"simpleNm":"그로마","zipCd":"63629","addr":"제주 서귀포시 표선면 표선동서로 343","telNo":"064)787-7377","bizType":"3408","bizTypeNm":"건축관련업","bizTypeDetail":"주택,건설","salesCd":"000"}},{"type":"Feature","geometry":{"type":"Point","coordinates":[126.51052,33.481052]},"properties":{"seq":2514112,"regDate":1584153864490,"simpleNm":"그린나래전기조명주식회사","zipCd":"63147","addr":"제주 제주시 연북로 272","telNo":"064)711-6385","bizType":"3201","bizTypeNm":"전자제품","bizTypeDetail":"조명 전기기구점","salesCd":"145"}},{"type":"Feature","geometry":{"type":"Point","coordinates":[0,0]},"properties":{"seq":292292,"regDate":1584138851201,"simpleNm":"그린앵글","zipCd":"690812","addr":"제주 제주시 삼도1동","telNo":"064)756-3785","bizType":"3002","bizTypeNm":"가구","bizTypeDetail":"철재가구점","salesCd":"145"}},{"type":"Feature","geometry":{"type":"Point","coordinates":[0,0]},"properties":{"seq":211127,"regDate":1584138284857,"simpleNm":"그린정보통신","zipCd":"690022","addr":"제주 제주시 이도2동","telNo":"064)725-0161","bizType":"6102","bizTypeNm":"사무기기","bizTypeDetail":"정보통신기기","salesCd":"160"}},{"type":"Feature","geometry":{"type":"Point","coordinates":[126.484363,33.493468]},"properties":{"seq":326185,"regDate":1584139090349,"simpleNm":"그린종합가구","zipCd":"63127","addr":"제주 제주시 일주서로 7842","telNo":"064)711-0633","bizType":"3001","bizTypeNm":"가구","bizTypeDetail":"일반가구점","salesCd":"160"}},{"type":"Feature","geometry":{"type":"Point","coordinates":[0,0]},"properties":{"seq":473057,"regDate":1584140084122,"simpleNm":"그린컴퓨터","zipCd":"690850","addr":"제주 제주시 삼도2동","telNo":"064)723-7819","bizType":"6103","bizTypeNm":"사무기기","bizTypeDetail":"컴퓨터기기","salesCd":"145"}},{"type":"Feature","geometry":{"type":"Point","coordinates":[126.568263,33.258028]},"properties":{"seq":1010245,"regDate":1584143853441,"simpleNm":"그림인테리어장식","zipCd":"63585","addr":"제주 서귀포시 동홍동","telNo":"064)732-2500","bizType":"3404","bizTypeNm":"건축관련업","bizTypeDetail":"실내장식","salesCd":"145"}},{"type":"Feature","geometry":{"type":"Point","coordinates":[0,0]},"properties":{"seq":234855,"regDate":1584138452048,"simpleNm":"극동석유","zipCd":"690021","addr":"제주 제주시 이도1동","telNo":"064)722-3568","bizType":"3302","bizTypeNm":"연료판매","bizTypeDetail":"연탄 및 유류판매점","salesCd":"166"}},{"type":"Feature","geometry":{"type":"Point","coordinates":[126.401976,33.480814]},"properties":{"seq":232243,"regDate":1584138435359,"simpleNm":"금강건재철물상사","zipCd":"63050","addr":"제주 제주시 애월읍","telNo":"064)713-6037","bizType":"3401","bizTypeNm":"건축관련업","bizTypeDetail":"건축자재","salesCd":"145"}},{"type":"Feature","geometry":{"type":"Point","coordinates":[126.398097,33.252283]},"properties":{"seq":3882461,"regDate":1590616855884,"simpleNm":"금강공영","zipCd":"63536","addr":"제주 서귀포시 예래로83번길 20","telNo":"064)111-1111","bizType":"3408","bizTypeNm":"건축관련업","bizTypeDetail":"주택,건설","salesCd":"145"}},{"type":"Feature","geometry":{"type":"Point","coordinates":[126.539178,33.49809]},"properties":{"seq":3354099,"regDate":1584159262942,"simpleNm":"금강종합건재","zipCd":"63225","addr":"제주 제주시 연삼로 458","telNo":"064)752-8209","bizType":"3401","bizTypeNm":"건축관련업","bizTypeDetail":"건축자재","salesCd":"160"}},{"type":"Feature","geometry":{"type":"Point","coordinates":[126.559698,33.26703]},"properties":{"seq":4315966,"regDate":1622153306208,"simpleNm":"금방석유","zipCd":"63579","addr":"제주 서귀포시 지장샘로 32","telNo":"064)733-5886","bizType":"3302","bizTypeNm":"연료판매","bizTypeDetail":"연탄 및 유류판매점","salesCd":"145"}},{"type":"Feature","geometry":{"type":"Point","coordinates":[0,0]},"properties":{"seq":179718,"regDate":1584138064220,"simpleNm":"금보종합건재상사","zipCd":"63589","addr":"제주 서귀포시 동홍동","telNo":"064)762-9009","bizType":"3401","bizTypeNm":"건축관련업","bizTypeDetail":"건축자재","salesCd":"160"}},{"type":"Feature","geometry":{"type":"Point","coordinates":[126.552774,33.513424]},"properties":{"seq":3102114,"regDate":1584157592217,"simpleNm":"금빛조명","zipCd":"63284","addr":"제주 제주시 일주동로 53","telNo":"064)755-4329","bizType":"3201","bizTypeNm":"전자제품","bizTypeDetail":"조명 전기기구점","salesCd":"145"}},{"type":"Feature","geometry":{"type":"Point","coordinates":[126.493368,33.482929]},"properties":{"seq":646478,"regDate":1584141272068,"simpleNm":"금산조명.전기","zipCd":"63136","addr":"제주 제주시 연동","telNo":"064)744-9668","bizType":"3201","bizTypeNm":"전자제품","bizTypeDetail":"조명 전기기구점","salesCd":"145"}},{"type":"Feature","geometry":{"type":"Point","coordinates":[126.58279,33.520284]},"properties":{"seq":4016950,"regDate":1599775740220,"simpleNm":"금선개발","zipCd":"63321","addr":"제주 제주시 지석10길 12","telNo":"064)000-0000","bizType":"3408","bizTypeNm":"건축관련업","bizTypeDetail":"주택,건설","salesCd":"145"}},{"type":"Feature","geometry":{"type":"Point","coordinates":[126.461288,33.484056]},"properties":{"seq":237827,"regDate":1584138472927,"simpleNm":"금성가스","zipCd":"63106","addr":"제주 제주시 노형동","telNo":"064)743-2322","bizType":"3303","bizTypeNm":"연료판매","bizTypeDetail":"가스판매점","salesCd":"165"}},{"type":"Feature","geometry":{"type":"Point","coordinates":[126.25328,33.225694]},"properties":{"seq":1218926,"regDate":1584145393433,"simpleNm":"금성부엌가구","zipCd":"63508","addr":"제주 서귀포시 대정읍 동일하모로 208","telNo":"064)794-9177","bizType":"3202","bizTypeNm":"주방용품","bizTypeDetail":"주방기구점","salesCd":"145"}},{"type":"Feature","geometry":{"type":"Point","coordinates":[126.254924,33.222427]},"properties":{"seq":973998,"regDate":1584143574840,"simpleNm":"금성소리사","zipCd":"63510","addr":"제주 서귀포시 대정읍","telNo":"064)794-2141","bizType":"3101","bizTypeNm":"전자제품","bizTypeDetail":"가전제품점","salesCd":"145"}},{"type":"Feature","geometry":{"type":"Point","coordinates":[126.571877,33.265637]},"properties":{"seq":756256,"regDate":1584142036027,"simpleNm":"금성침대","zipCd":"63579","addr":"제주 서귀포시 동홍동","telNo":"064)732-8245","bizType":"3001","bizTypeNm":"가구","bizTypeDetail":"일반가구점","salesCd":"145"}},{"type":"Feature","geometry":{"type":"Point","coordinates":[126.228909,33.256932]},"properties":{"seq":1572966,"regDate":1584147858422,"simpleNm":"금오개발","zipCd":"63504","addr":"제주 서귀포시 대정읍","telNo":"064)794-6004","bizType":"3499","bizTypeNm":"건축관련업","bizTypeDetail":"기타 건축자재","salesCd":"165"}},{"type":"Feature","geometry":{"type":"Point","coordinates":[126.569979,33.265544]},"properties":{"seq":116248,"regDate":1584137627479,"simpleNm":"금오금속","zipCd":"63586","addr":"제주 서귀포시 중산간동로 7921","telNo":"064)763-3444","bizType":"3401","bizTypeNm":"건축관련업","bizTypeDetail":"건축자재","salesCd":"145"}},{"type":"Feature","geometry":{"type":"Point","coordinates":[0,0]},"properties":{"seq":3724518,"regDate":1584161705752,"simpleNm":"금호종합건재","zipCd":"63313","addr":"제주 제주시 명도암동길 32","telNo":"064)757-7288","bizType":"3401","bizTypeNm":"건축관련업","bizTypeDetail":"건축자재","salesCd":"145"}},{"type":"Feature","geometry":{"type":"Point","coordinates":[126.523414,33.516327]},"properties":{"seq":3768766,"regDate":1584162007545,"simpleNm":"기융 플랫홈","zipCd":"63168","addr":"제주 제주시 관덕로 36","telNo":"064)111-1111","bizType":"6102","bizTypeNm":"사무기기","bizTypeDetail":"정보통신기기","salesCd":"145"}},{"type":"Feature","geometry":{"type":"Point","coordinates":[126.525966,33.508368]},"properties":{"seq":4001075,"regDate":1598566193225,"simpleNm":"기적상점","zipCd":"63194","addr":"제주 제주시 중앙로21길 18","telNo":"064)000-0000","bizType":"3404","bizTypeNm":"건축관련업","bizTypeDetail":"실내장식","salesCd":"145"}},{"type":"Feature","geometry":{"type":"Point","coordinates":[126.49585,33.492099]},"properties":{"seq":3168111,"regDate":1584158020192,"simpleNm":"기전사","zipCd":"63118","addr":"제주 제주시 삼무로11길 16","telNo":null,"bizType":"3102","bizTypeNm":"전자제품","bizTypeDetail":"냉난방기구","salesCd":"145"}},{"type":"Feature","geometry":{"type":"Point","coordinates":[126.51541,33.507821]},"properties":{"seq":3229409,"regDate":1584158432977,"simpleNm":"기획쇼파","zipCd":"63174","addr":"제주 제주시 남성로 91","telNo":"064)723-6663","bizType":"3001","bizTypeNm":"가구","bizTypeDetail":"일반가구점","salesCd":"145"}},{"type":"Feature","geometry":{"type":"Point","coordinates":[126.399608,33.432547]},"properties":{"seq":3116537,"regDate":1584157686987,"simpleNm":"길복건축","zipCd":"63067","addr":"제주 제주시 애월읍 유수암로 130","telNo":"02)157-7000","bizType":"3408","bizTypeNm":"건축관련업","bizTypeDetail":"주택,건설","salesCd":"145"}},{"type":"Feature","geometry":{"type":"Point","coordinates":[126.746609,33.552131]},"properties":{"seq":365147,"regDate":1584139347583,"simpleNm":"김녕가스","zipCd":"63357","addr":"제주 제주시 구좌읍","telNo":"064)782-5679","bizType":"3303","bizTypeNm":"연료판매","bizTypeDetail":"가스판매점","salesCd":"160"}},{"type":"Feature","geometry":{"type":"Point","coordinates":[126.528329,33.492481]},"properties":{"seq":4805717,"regDate":1659415620072,"simpleNm":"까사데코","zipCd":"63205","addr":"제주 제주시 도남로 89","telNo":"064)725-3988","bizType":"3001","bizTypeNm":"가구","bizTypeDetail":"일반가구점","salesCd":"000"}},{"type":"Feature","geometry":{"type":"Point","coordinates":[126.488688,33.481141]},"properties":{"seq":435602,"regDate":1584139831943,"simpleNm":"까사미아 신제주점","zipCd":"63138","addr":"제주 제주시 과원북4길 65","telNo":"064)752-0011","bizType":"3001","bizTypeNm":"가구","bizTypeDetail":"일반가구점","salesCd":"166"}},{"type":"Feature","geometry":{"type":"Point","coordinates":[126.531319,33.500923]},"properties":{"seq":1856204,"regDate":1584149860857,"simpleNm":"까사미아제주점","zipCd":"63208","addr":"제주 제주시 동광로 6","telNo":"064)723-3005","bizType":"3001","bizTypeNm":"가구","bizTypeDetail":"일반가구점","salesCd":"166"}},{"type":"Feature","geometry":{"type":"Point","coordinates":[126.401599,33.465843]},"properties":{"seq":4215015,"regDate":1615500523027,"simpleNm":"꼬마점빵","zipCd":"63057","addr":"제주 제주시 애월읍 상귀길 80","telNo":"064)712-8988","bizType":"3202","bizTypeNm":"주방용품","bizTypeDetail":"주방기구점","salesCd":"145"}},{"type":"Feature","geometry":{"type":"Point","coordinates":[126.550699,33.474016]},"properties":{"seq":4264981,"regDate":1618870120962,"simpleNm":"꽃마리협동조합","zipCd":"63248","addr":"제주 제주시 인다11길 29","telNo":"064)755-6883","bizType":"3203","bizTypeNm":"주방용품","bizTypeDetail":"주방 및 가정용품점","salesCd":"145"}},{"type":"Feature","geometry":{"type":"Point","coordinates":[126.582718,33.256726]},"properties":{"seq":1377187,"regDate":1584146521489,"simpleNm":"꽃보다 조명","zipCd":"63604","addr":"제주 서귀포시 일주동로 8472","telNo":"064)733-1009","bizType":"3201","bizTypeNm":"전자제품","bizTypeDetail":"조명 전기기구점","salesCd":"145"}},{"type":"Feature","geometry":{"type":"Point","coordinates":[126.50079,33.49184]},"properties":{"seq":784399,"regDate":1584142238440,"simpleNm":"나경솔루션","zipCd":"63120","addr":"제주 제주시 연동","telNo":"064)742-7186","bizType":"6103","bizTypeNm":"사무기기","bizTypeDetail":"컴퓨터기기","salesCd":"145"}},{"type":"Feature","geometry":{"type":"Point","coordinates":[126.647236,33.540213]},"properties":{"seq":3404220,"regDate":1584159596016,"simpleNm":"나남가스","zipCd":"63331","addr":"제주 제주시 조천읍 신북로 338-6","telNo":"064)783-7020","bizType":"3303","bizTypeNm":"연료판매","bizTypeDetail":"가스판매점","salesCd":"165"}},{"type":"Feature","geometry":{"type":"Point","coordinates":[126.541287,33.475644]},"properties":{"seq":3219619,"regDate":1584158367320,"simpleNm":"나노글라스 제주지사","zipCd":"63237","addr":"제주 제주시 아란3길 24","telNo":"064)000-0000","bizType":"3408","bizTypeNm":"건축관련업","bizTypeDetail":"주택,건설","salesCd":"145"}},{"type":"Feature","geometry":{"type":"Point","coordinates":[126.500623,33.491831]},"properties":{"seq":3031676,"regDate":1584157141815,"simpleNm":"나누미","zipCd":"63120","addr":"제주 제주시 신대로7길 37","telNo":"064)744-8840","bizType":"3203","bizTypeNm":"주방용품","bizTypeDetail":"주방 및 가정용품점","salesCd":"145"}},{"type":"Feature","geometry":{"type":"Point","coordinates":[126.548578,33.484062]},"properties":{"seq":2741119,"regDate":1584155296733,"simpleNm":"나눔기술","zipCd":"63246","addr":"제주 제주시 월두2길 35","telNo":"064)723-5770","bizType":"3199","bizTypeNm":"전자제품","bizTypeDetail":"기타 전자제품","salesCd":"145"}},{"type":"Feature","geometry":{"type":"Point","coordinates":[0,0]},"properties":{"seq":526607,"regDate":1584140450321,"simpleNm":"나드리기획","zipCd":"690819","addr":"제주 제주시 용담1동","telNo":"064)751-1623","bizType":"3405","bizTypeNm":"건축관련업","bizTypeDetail":"지물 및 천막","salesCd":"145"}},{"type":"Feature","geometry":{"type":"Point","coordinates":[0,0]},"properties":{"seq":240688,"regDate":1584138491816,"simpleNm":"나라정보통신주식회사","zipCd":"690041","addr":"제주 제주시 용담1동","telNo":"064)757-8011","bizType":"6102","bizTypeNm":"사무기기","bizTypeDetail":"정보통신기기","salesCd":"145"}},{"type":"Feature","geometry":{"type":"Point","coordinates":[126.567217,33.519585]},"properties":{"seq":28721,"regDate":1584137018635,"simpleNm":"나래장식","zipCd":"63289","addr":"제주 제주시 화북일동","telNo":"064)756-7729","bizType":"3405","bizTypeNm":"건축관련업","bizTypeDetail":"지물 및 천막","salesCd":"145"}},{"type":"Feature","geometry":{"type":"Point","coordinates":[126.520971,33.499273]},"properties":{"seq":1405459,"regDate":1584146718167,"simpleNm":"나무뮤직","zipCd":"63186","addr":"제주 제주시 서광로18길 5-3","telNo":"064)726-8100","bizType":"3199","bizTypeNm":"전자제품","bizTypeDetail":"기타 전자제품","salesCd":"145"}},{"type":"Feature","geometry":{"type":"Point","coordinates":[126.532717,33.455934]},"properties":{"seq":2559389,"regDate":1584154141887,"simpleNm":"나무사랑공방","zipCd":"63242","addr":"제주 제주시 죽성서길 71","telNo":"064)000-0000","bizType":"3001","bizTypeNm":"가구","bizTypeDetail":"일반가구점","salesCd":"145"}},{"type":"Feature","geometry":{"type":"Point","coordinates":[126.187124,33.273043]},"properties":{"seq":2660612,"regDate":1584154781247,"simpleNm":"나무아저씨","zipCd":"63500","addr":"제주 서귀포시 대정읍 도원남로 110-14","telNo":"064)000-0000","bizType":"3001","bizTypeNm":"가구","bizTypeDetail":"일반가구점","salesCd":"145"}},{"type":"Feature","geometry":{"type":"Point","coordinates":[0,0]},"properties":{"seq":573490,"regDate":1584140774660,"simpleNm":"나무야","zipCd":"690191","addr":"제주 제주시 외도1동","telNo":"064)743-3919","bizType":"3001","bizTypeNm":"가구","bizTypeDetail":"일반가구점","salesCd":"145"}},{"type":"Feature","geometry":{"type":"Point","coordinates":[126.542934,33.489586]},"properties":{"seq":171408,"regDate":1584138003788,"simpleNm":"나바론종합상사","zipCd":"63230","addr":"제주 제주시 연북로 607","telNo":"064)752-5689","bizType":"3403","bizTypeNm":"건축관련업","bizTypeDetail":"철물점","salesCd":"166"}},{"type":"Feature","geometry":{"type":"Point","coordinates":[126.484124,33.487877]},"properties":{"seq":860703,"regDate":1584142781494,"simpleNm":"나사로잉크,열쇠","zipCd":"63081","addr":"제주 제주시 노형동","telNo":"064)711-2986","bizType":"6103","bizTypeNm":"사무기기","bizTypeDetail":"컴퓨터기기","salesCd":"145"}},{"type":"Feature","geometry":{"type":"Point","coordinates":[126.509883,33.507303]},"properties":{"seq":3004677,"regDate":1584156966070,"simpleNm":"나은OA","zipCd":"63161","addr":"제주 제주시 용문로 142","telNo":"064)724-1180","bizType":"6101","bizTypeNm":"사무기기","bizTypeDetail":"사무용기기","salesCd":"145"}},{"type":"Feature","geometry":{"type":"Point","coordinates":[126.48964,33.477311]},"properties":{"seq":3161830,"regDate":1584157979007,"simpleNm":"나이스시큐리티","zipCd":"63140","addr":"제주 제주시 연화로2길 22-1","telNo":"064)111-1111","bizType":"3407","bizTypeNm":"건축관련업","bizTypeDetail":"보안경비시스템","salesCd":"145"}},{"type":"Feature","geometry":{"type":"Point","coordinates":[126.512784,33.51056]},"properties":{"seq":3439937,"regDate":1584159832661,"simpleNm":"낙원중고악기점","zipCd":"63155","addr":"제주 제주시 용한로 18","telNo":"064)000-0000","bizType":"6110","bizTypeNm":"악기","bizTypeDetail":"기타악기판매점","salesCd":"145"}},{"type":"Feature","geometry":{"type":"Point","coordinates":[0,0]},"properties":{"seq":934256,"regDate":1584143288145,"simpleNm":"남강철재(주)","zipCd":"63304","addr":"제주 제주시 화북이동","telNo":"064)759-0096","bizType":"3401","bizTypeNm":"건축관련업","bizTypeDetail":"건축자재","salesCd":"167"}},{"type":"Feature","geometry":{"type":"Point","coordinates":[126.536001,33.506574]},"properties":{"seq":164589,"regDate":1584137960815,"simpleNm":"남광기업","zipCd":"63265","addr":"제주 제주시 신산로 9-1","telNo":"064)723-0976","bizType":"3403","bizTypeNm":"건축관련업","bizTypeDetail":"철물점","salesCd":"160"}},{"type":"Feature","geometry":{"type":"Point","coordinates":[126.560372,33.258103]},"properties":{"seq":1161680,"regDate":1584144983120,"simpleNm":"남구철물건재백화점","zipCd":"63585","addr":"제주 서귀포시 중앙로150번길 1","telNo":"064)732-7263","bizType":"3403","bizTypeNm":"건축관련업","bizTypeDetail":"철물점","salesCd":"145"}},{"type":"Feature","geometry":{"type":"Point","coordinates":[0,0]},"properties":{"seq":226294,"regDate":1584138393043,"simpleNm":"남문종합상사","zipCd":"690042","addr":"제주 제주시 용담2동","telNo":"064)711-5066","bizType":"3101","bizTypeNm":"전자제품","bizTypeDetail":"가전제품점","salesCd":"165"}},{"type":"Feature","geometry":{"type":"Point","coordinates":[126.524691,33.506913]},"properties":{"seq":4558862,"regDate":1640642743114,"simpleNm":"남문텔레콤","zipCd":"63170","addr":"제주 제주시 중앙로 132","telNo":"064)111-1111","bizType":"6102","bizTypeNm":"사무기기","bizTypeDetail":"정보통신기기","salesCd":"145"}},{"type":"Feature","geometry":{"type":"Point","coordinates":[0,0]},"properties":{"seq":614347,"regDate":1584141051986,"simpleNm":"남성목재","zipCd":"63589","addr":"제주 서귀포시 동홍동","telNo":"064)762-8686","bizType":"3001","bizTypeNm":"가구","bizTypeDetail":"일반가구점","salesCd":"145"}},{"type":"Feature","geometry":{"type":"Point","coordinates":[0,0]},"properties":{"seq":208231,"regDate":1584138263194,"simpleNm":"남성창호","zipCd":"690082","addr":"제주 제주시 도련2동","telNo":"064)726-2220","bizType":"3401","bizTypeNm":"건축관련업","bizTypeDetail":"건축자재","salesCd":"145"}},{"type":"Feature","geometry":{"type":"Point","coordinates":[126.264665,33.418119]},"properties":{"seq":3831540,"regDate":1587333667153,"simpleNm":"남성철물","zipCd":"63030","addr":"제주 제주시 한림읍 한림로 710","telNo":"064)796-3034","bizType":"3403","bizTypeNm":"건축관련업","bizTypeDetail":"철물점","salesCd":"145"}},{"type":"Feature","geometry":{"type":"Point","coordinates":[0,0]},"properties":{"seq":129952,"regDate":1584137720757,"simpleNm":"남성철물건재상사","zipCd":"690041","addr":"제주 제주시 용담1동","telNo":"064)753-3268","bizType":"3403","bizTypeNm":"건축관련업","bizTypeDetail":"철물점","salesCd":"145"}},{"type":"Feature","geometry":{"type":"Point","coordinates":[126.716591,33.278802]},"properties":{"seq":2535747,"regDate":1584153995933,"simpleNm":"남원고려페인트사","zipCd":"63621","addr":"제주 서귀포시 남원읍 태위로657번길 3","telNo":"064)764-2007","bizType":"3401","bizTypeNm":"건축관련업","bizTypeDetail":"건축자재","salesCd":"145"}},{"type":"Feature","geometry":{"type":"Point","coordinates":[126.714552,33.278145]},"properties":{"seq":801630,"regDate":1584142363579,"simpleNm":"남원종합장식","zipCd":"63621","addr":"제주 서귀포시 남원읍","telNo":"064)763-3223","bizType":"3405","bizTypeNm":"건축관련업","bizTypeDetail":"지물 및 천막","salesCd":"145"}},{"type":"Feature","geometry":{"type":"Point","coordinates":[126.721498,33.279264]},"properties":{"seq":1585173,"regDate":1584147954549,"simpleNm":"남원지업사","zipCd":"63621","addr":"제주 서귀포시 남원읍 태위로700번길 5","telNo":"064)764-0231","bizType":"3405","bizTypeNm":"건축관련업","bizTypeDetail":"지물 및 천막","salesCd":"145"}},{"type":"Feature","geometry":{"type":"Point","coordinates":[126.721001,33.279006]},"properties":{"seq":4109528,"regDate":1606946931951,"simpleNm":"남원철물","zipCd":"63621","addr":"제주 서귀포시 남원읍 남원회관로 75","telNo":"064)765-2666","bizType":"3403","bizTypeNm":"건축관련업","bizTypeDetail":"철물점","salesCd":"145"}},{"type":"Feature","geometry":{"type":"Point","coordinates":[126.714313,33.283151]},"properties":{"seq":2944175,"regDate":1584156578568,"simpleNm":"남원필스테이션","zipCd":"63619","addr":"제주 서귀포시 남원읍 남한로 75-28","telNo":"064)764-7680","bizType":"3303","bizTypeNm":"연료판매","bizTypeDetail":"가스판매점","salesCd":"145"}},{"type":"Feature","geometry":{"type":"Point","coordinates":[126.719424,33.279309]},"properties":{"seq":1196595,"regDate":1584145239875,"simpleNm":"남창철물","zipCd":"63621","addr":"제주 서귀포시 남원읍","telNo":"064)764-0021","bizType":"3403","bizTypeNm":"건축관련업","bizTypeDetail":"철물점","salesCd":"160"}},{"type":"Feature","geometry":{"type":"Point","coordinates":[126.531168,33.463524]},"properties":{"seq":3003545,"regDate":1584156958932,"simpleNm":"낭이왁(wood story)","zipCd":"63240","addr":"제주 제주시 한북로 141","telNo":"064)000-0000","bizType":"3001","bizTypeNm":"가구","bizTypeDetail":"일반가구점","salesCd":"145"}},{"type":"Feature","geometry":{"type":"Point","coordinates":[126.532172,33.503695]},"properties":{"seq":2731732,"regDate":1584155237062,"simpleNm":"내집안장식","zipCd":"63196","addr":"제주 제주시 동광로7길 16-22","telNo":"064)722-1921","bizType":"3408","bizTypeNm":"건축관련업","bizTypeDetail":"주택,건설","salesCd":"145"}},{"type":"Feature","geometry":{"type":"Point","coordinates":[126.907453,33.427401]},"properties":{"seq":1280706,"regDate":1584145831398,"simpleNm":"넝쿨에너지","zipCd":"63641","addr":"제주 서귀포시 성산읍 일주동로 4497","telNo":"064)783-3232","bizType":"3303","bizTypeNm":"연료판매","bizTypeDetail":"가스판매점","salesCd":"166"}},{"type":"Feature","geometry":{"type":"Point","coordinates":[126.463478,33.495257]},"properties":{"seq":3515815,"regDate":1584160339690,"simpleNm":"네모나라목공아트","zipCd":"63108","addr":"제주 제주시 백포남길 6","telNo":"064)111-1111","bizType":"3001","bizTypeNm":"가구","bizTypeDetail":"일반가구점","salesCd":"145"}},{"type":"Feature","geometry":{"type":"Point","coordinates":[126.478806,33.494254]},"properties":{"seq":1177616,"regDate":1584145099265,"simpleNm":"네오가구","zipCd":"63116","addr":"제주 제주시 오일장동길 10","telNo":"064)749-7034","bizType":"3001","bizTypeNm":"가구","bizTypeDetail":"일반가구점","salesCd":"145"}},{"type":"Feature","geometry":{"type":"Point","coordinates":[126.516746,33.514042]},"properties":{"seq":3690933,"regDate":1584161481959,"simpleNm":"네츠고통신","zipCd":"63153","addr":"제주 제주시 서문로 29","telNo":"064)711-9011","bizType":"6102","bizTypeNm":"사무기기","bizTypeDetail":"정보통신기기","salesCd":"145"}},{"type":"Feature","geometry":{"type":"Point","coordinates":[126.530337,33.495032]},"properties":{"seq":2106418,"regDate":1584151367872,"simpleNm":"넥스트컴퓨터","zipCd":"63206","addr":"제주 제주시 신성로10길 19","telNo":"064)725-1011","bizType":"6103","bizTypeNm":"사무기기","bizTypeDetail":"컴퓨터기기","salesCd":"145"}},{"type":"Feature","geometry":{"type":"Point","coordinates":[126.276869,33.421764]},"properties":{"seq":3052635,"regDate":1584157275764,"simpleNm":"노루페인트한림점","zipCd":"63026","addr":"제주 제주시 한림읍 한수풀로 140","telNo":"064)796-7047","bizType":"3401","bizTypeNm":"건축관련업","bizTypeDetail":"건축자재","salesCd":"160"}},{"type":"Feature","geometry":{"type":"Point","coordinates":[126.552886,33.248974]},"properties":{"seq":893712,"regDate":1584143013603,"simpleNm":"노루페인트한성건업","zipCd":"63570","addr":"제주 서귀포시 서홍동","telNo":"064)762-2727","bizType":"3401","bizTypeNm":"건축관련업","bizTypeDetail":"건축자재","salesCd":"160"}},{"type":"Feature","geometry":{"type":"Point","coordinates":[126.466881,33.477353]},"properties":{"seq":3532,"regDate":1584136840792,"simpleNm":"노형가구타운","zipCd":"63107","addr":"제주 제주시 노형로 265","telNo":"064)744-1137","bizType":"3001","bizTypeNm":"가구","bizTypeDetail":"일반가구점","salesCd":"145"}},{"type":"Feature","geometry":{"type":"Point","coordinates":[126.47413,33.479435]},"properties":{"seq":1558064,"regDate":1584147754367,"simpleNm":"노형대기종합철물","zipCd":"63088","addr":"제주 제주시 노형5길 44","telNo":"064)745-5009","bizType":"3403","bizTypeNm":"건축관련업","bizTypeDetail":"철물점","salesCd":"145"}},{"type":"Feature","geometry":{"type":"Point","coordinates":[126.430653,33.486222]},"properties":{"seq":2839056,"regDate":1584155913265,"simpleNm":"노형보일러","zipCd":"63069","addr":"제주 제주시 우정로 74","telNo":"064)700-0000","bizType":"3408","bizTypeNm":"건축관련업","bizTypeDetail":"주택,건설","salesCd":"145"}},{"type":"Feature","geometry":{"type":"Point","coordinates":[126.470945,33.490779]},"properties":{"seq":3883106,"regDate":1590616859180,"simpleNm":"노형조경","zipCd":"63094","addr":"제주 제주시 월광로 123-11","telNo":"064)000-0000","bizType":"3408","bizTypeNm":"건축관련업","bizTypeDetail":"주택,건설","salesCd":"160"}},{"type":"Feature","geometry":{"type":"Point","coordinates":[126.379391,33.438781]},"properties":{"seq":2408849,"regDate":1584153224476,"simpleNm":"누수설비시공","zipCd":"63037","addr":"제주 제주시 애월읍 소길2길 45-3","telNo":"064)772-5995","bizType":"3402","bizTypeNm":"건축관련업","bizTypeDetail":"기계류 건축설비","salesCd":"145"}},{"type":"Feature","geometry":{"type":"Point","coordinates":[0,0]},"properties":{"seq":23744,"regDate":1584136982825,"simpleNm":"뉴-월드가구백화점","zipCd":"690819","addr":"제주 제주시 용담1동","telNo":"064)755-2222","bizType":"3001","bizTypeNm":"가구","bizTypeDetail":"일반가구점","salesCd":"160"}},{"type":"Feature","geometry":{"type":"Point","coordinates":[126.532119,33.495778]},"properties":{"seq":129975,"regDate":1584137720948,"simpleNm":"뉴젠인폼","zipCd":"63206","addr":"제주 제주시 중앙로 270-1","telNo":"064)752-4949","bizType":"6103","bizTypeNm":"사무기기","bizTypeDetail":"컴퓨터기기","salesCd":"160"}},{"type":"Feature","geometry":{"type":"Point","coordinates":[126.55563,33.514007]},"properties":{"seq":4119889,"regDate":1607638126776,"simpleNm":"뉴준정보통신","zipCd":"63296","addr":"제주 제주시 일주동로 80","telNo":"064)000-0000","bizType":"3407","bizTypeNm":"건축관련업","bizTypeDetail":"보안경비시스템","salesCd":"145"}},{"type":"Feature","geometry":{"type":"Point","coordinates":[126.49118,33.488693]},"properties":{"seq":2906060,"regDate":1584156332254,"simpleNm":"느타리","zipCd":"63124","addr":"제주 제주시 신대로12길 51","telNo":"064)111-1111","bizType":"3404","bizTypeNm":"건축관련업","bizTypeDetail":"실내장식","salesCd":"145"}},{"type":"Feature","geometry":{"type":"Point","coordinates":[126.511616,33.493033]},"properties":{"seq":315155,"regDate":1584139015494,"simpleNm":"니드필가구","zipCd":"63148","addr":"제주 제주시 연삼로 177","telNo":"064)745-8200","bizType":"3001","bizTypeNm":"가구","bizTypeDetail":"일반가구점","salesCd":"160"}},{"type":"Feature","geometry":{"type":"Point","coordinates":[126.512137,33.50234]},"properties":{"seq":2860545,"regDate":1584156045959,"simpleNm":"다가치축제천막기획","zipCd":"63175","addr":"제주 제주시 남성로3길 12","telNo":"070)7581-5743","bizType":"3405","bizTypeNm":"건축관련업","bizTypeDetail":"지물 및 천막","salesCd":"145"}},{"type":"Feature","geometry":{"type":"Point","coordinates":[126.516464,33.513177]},"properties":{"seq":4094536,"regDate":1605823693564,"simpleNm":"다낭인테리어","zipCd":"63153","addr":"제주 제주시 서문로5길 21-3","telNo":"02)1577-0000","bizType":"3408","bizTypeNm":"건축관련업","bizTypeDetail":"주택,건설","salesCd":"145"}},{"type":"Feature","geometry":{"type":"Point","coordinates":[126.517071,33.515699]},"properties":{"seq":2401091,"regDate":1584153178179,"simpleNm":"다복타일","zipCd":"63167","addr":"제주 제주시 탑동로 103","telNo":"064)743-1855","bizType":"3401","bizTypeNm":"건축관련업","bizTypeDetail":"건축자재","salesCd":"165"}},{"type":"Feature","geometry":{"type":"Point","coordinates":[126.499113,33.484918]},"properties":{"seq":3638024,"regDate":1584161137263,"simpleNm":"다빌리죠","zipCd":"63134","addr":"제주 제주시 비월1길 18-1","telNo":"064)000-0000","bizType":"3404","bizTypeNm":"건축관련업","bizTypeDetail":"실내장식","salesCd":"145"}},{"type":"Feature","geometry":{"type":"Point","coordinates":[126.370328,33.475271]},"properties":{"seq":1838820,"regDate":1584149756109,"simpleNm":"다울DIY목공방","zipCd":"63047","addr":"제주 제주시 애월읍 중엄1길 37-3","telNo":"070)8801-2714","bizType":"3001","bizTypeNm":"가구","bizTypeDetail":"일반가구점","salesCd":"145"}},{"type":"Feature","geometry":{"type":"Point","coordinates":[126.561725,33.265069]},"properties":{"seq":3109665,"regDate":1584157642206,"simpleNm":"다원조명","zipCd":"63579","addr":"제주 서귀포시 중산간동로 8002","telNo":"064)000-0000","bizType":"3201","bizTypeNm":"전자제품","bizTypeDetail":"조명 전기기구점","salesCd":"145"}},{"type":"Feature","geometry":{"type":"Point","coordinates":[126.567734,33.518183]},"properties":{"seq":898872,"regDate":1584143045823,"simpleNm":"다원철강","zipCd":"63300","addr":"제주 제주시 일주동로 208","telNo":"064)755-9366","bizType":"3401","bizTypeNm":"건축관련업","bizTypeDetail":"건축자재","salesCd":"166"}},{"type":"Feature","geometry":{"type":"Point","coordinates":[126.556251,33.496238]},"properties":{"seq":1463388,"regDate":1584147102295,"simpleNm":"다이노LED테크원","zipCd":"63305","addr":"제주 제주시 황사평6길 15","telNo":"064)712-5050","bizType":"3201","bizTypeNm":"전자제품","bizTypeDetail":"조명 전기기구점","salesCd":"145"}},{"type":"Feature","geometry":{"type":"Point","coordinates":[126.265322,33.410841]},"properties":{"seq":364436,"regDate":1584139342141,"simpleNm":"다이소제주한림점","zipCd":"63032","addr":"제주 제주시 한림읍 한림중앙로 44","telNo":"064)796-7889","bizType":"3203","bizTypeNm":"주방용품","bizTypeDetail":"주방 및 가정용품점","salesCd":"166"}},{"type":"Feature","geometry":{"type":"Point","coordinates":[126.518738,33.500072]},"properties":{"seq":1599261,"regDate":1584148056420,"simpleNm":"다채움가구","zipCd":"63183","addr":"제주 제주시 서광로 209","telNo":"064)758-2580","bizType":"3001","bizTypeNm":"가구","bizTypeDetail":"일반가구점","salesCd":"160"}},{"type":"Feature","geometry":{"type":"Point","coordinates":[126.527182,33.497439]},"properties":{"seq":3088290,"regDate":1584157504301,"simpleNm":"다큐 제주지사","zipCd":"63200","addr":"제주 제주시 도남로7길 33","telNo":"064)000-0000","bizType":"6101","bizTypeNm":"사무기기","bizTypeDetail":"사무용기기","salesCd":"145"}},{"type":"Feature","geometry":{"type":"Point","coordinates":[126.427509,33.481255]},"properties":{"seq":2895133,"regDate":1584156262916,"simpleNm":"다해","zipCd":"63072","addr":"제주 제주시 우령서로18길 58","telNo":"064)747-8007","bizType":"3408","bizTypeNm":"건축관련업","bizTypeDetail":"주택,건설","salesCd":"145"}},{"type":"Feature","geometry":{"type":"Point","coordinates":[126.667596,33.540993]},"properties":{"seq":2809475,"regDate":1584155726690,"simpleNm":"담양지업사","zipCd":"63333","addr":"제주 제주시 조천읍 함덕16길 6-8","telNo":"064)783-7944","bizType":"3405","bizTypeNm":"건축관련업","bizTypeDetail":"지물 및 천막","salesCd":"145"}},{"type":"Feature","geometry":{"type":"Point","coordinates":[126.528123,33.494166]},"properties":{"seq":3794215,"regDate":1584335085869,"simpleNm":"당근이네","zipCd":"63205","addr":"제주 제주시 도남로11길 1","telNo":"064)111-1111","bizType":"3203","bizTypeNm":"주방용품","bizTypeDetail":"주방 및 가정용품점","salesCd":"145"}},{"type":"Feature","geometry":{"type":"Point","coordinates":[126.522056,33.497909]},"properties":{"seq":1328178,"regDate":1584146171621,"simpleNm":"대가기업","zipCd":"63186","addr":"제주 제주시 서사로23길 23-1","telNo":"064)757-5777","bizType":"3404","bizTypeNm":"건축관련업","bizTypeDetail":"실내장식","salesCd":"145"}},{"type":"Feature","geometry":{"type":"Point","coordinates":[0,0]},"properties":{"seq":1249907,"regDate":1584145606297,"simpleNm":"대건건업","zipCd":"63240","addr":"제주 제주시 오등동","telNo":"064)757-9984","bizType":"3404","bizTypeNm":"건축관련업","bizTypeDetail":"실내장식","salesCd":"145"}},{"type":"Feature","geometry":{"type":"Point","coordinates":[126.512366,33.258097]},"properties":{"seq":195825,"regDate":1584138173508,"simpleNm":"대건상회","zipCd":"63565","addr":"제주 서귀포시 서호동","telNo":"064)739-5678","bizType":"3405","bizTypeNm":"건축관련업","bizTypeDetail":"지물 및 천막","salesCd":"145"}},{"type":"Feature","geometry":{"type":"Point","coordinates":[126.503898,33.486812]},"properties":{"seq":3064201,"regDate":1584157351037,"simpleNm":"대경OA","zipCd":"63145","addr":"제주 제주시 연미길 82","telNo":"064)748-6105","bizType":"6101","bizTypeNm":"사무기기","bizTypeDetail":"사무용기기","salesCd":"145"}},{"type":"Feature","geometry":{"type":"Point","coordinates":[126.577946,33.257107]},"properties":{"seq":1108588,"regDate":1584144604786,"simpleNm":"대경건재","zipCd":"63587","addr":"제주 서귀포시 동홍동로26번길 30","telNo":"064)762-4525","bizType":"3401","bizTypeNm":"건축관련업","bizTypeDetail":"건축자재","salesCd":"145"}},{"type":"Feature","geometry":{"type":"Point","coordinates":[126.51745,33.503337]},"properties":{"seq":4010279,"regDate":1599257247802,"simpleNm":"대경건축","zipCd":"63176","addr":"제주 제주시 평전5길 18-1","telNo":"064)111-1111","bizType":"3408","bizTypeNm":"건축관련업","bizTypeDetail":"주택,건설","salesCd":"145"}},{"type":"Feature","geometry":{"type":"Point","coordinates":[126.576069,33.266455]},"properties":{"seq":2566607,"regDate":1584154185319,"simpleNm":"대경종합상사","zipCd":"63579","addr":"제주 서귀포시 중산간동로 7864-2","telNo":"064)733-9910","bizType":"3403","bizTypeNm":"건축관련업","bizTypeDetail":"철물점","salesCd":"166"}},{"type":"Feature","geometry":{"type":"Point","coordinates":[126.517915,33.511972]},"properties":{"seq":136338,"regDate":1584137764900,"simpleNm":"대경지업","zipCd":"63153","addr":"제주 제주시 용담일동","telNo":"064)757-4167","bizType":"3405","bizTypeNm":"건축관련업","bizTypeDetail":"지물 및 천막","salesCd":"145"}},{"type":"Feature","geometry":{"type":"Point","coordinates":[126.916507,33.447501]},"properties":{"seq":3378818,"regDate":1584159425207,"simpleNm":"대광철물상사","zipCd":"63641","addr":"제주 서귀포시 성산읍 일출로 32-2","telNo":"064)783-0707","bizType":"3403","bizTypeNm":"건축관련업","bizTypeDetail":"철물점","salesCd":"160"}},{"type":"Feature","geometry":{"type":"Point","coordinates":[126.461288,33.484056]},"properties":{"seq":4067486,"regDate":1603922964034,"simpleNm":"대기에너지","zipCd":"63106","addr":"제주 제주시 오광로 138","telNo":"064)721-5607","bizType":"3303","bizTypeNm":"연료판매","bizTypeDetail":"가스판매점","salesCd":"145"}},{"type":"Feature","geometry":{"type":"Point","coordinates":[0,0]},"properties":{"seq":654744,"regDate":1584141331240,"simpleNm":"대기종합건재","zipCd":"690833","addr":"제주 제주시 일도2동","telNo":"064)752-8070","bizType":"3401","bizTypeNm":"건축관련업","bizTypeDetail":"건축자재","salesCd":"145"}},{"type":"Feature","geometry":{"type":"Point","coordinates":[126.596158,33.489402]},"properties":{"seq":99672,"regDate":1584137518109,"simpleNm":"대기철물","zipCd":"63313","addr":"제주 제주시 번영로 514","telNo":"064)721-6805","bizType":"3403","bizTypeNm":"건축관련업","bizTypeDetail":"철물점","salesCd":"160"}},{"type":"Feature","geometry":{"type":"Point","coordinates":[0,0]},"properties":{"seq":134210,"regDate":1584137750982,"simpleNm":"대길상회","zipCd":"690829","addr":"제주 제주시 이도1동","telNo":"064)758-4823","bizType":"3202","bizTypeNm":"주방용품","bizTypeDetail":"주방기구점","salesCd":"145"}},{"type":"Feature","geometry":{"type":"Point","coordinates":[126.537852,33.504373]},"properties":{"seq":2076034,"regDate":1584151181001,"simpleNm":"대덕건설주식회사","zipCd":"63214","addr":"제주 제주시 가령로1길 14","telNo":"064)756-5770","bizType":"3499","bizTypeNm":"건축관련업","bizTypeDetail":"기타 건축자재","salesCd":"145"}},{"type":"Feature","geometry":{"type":"Point","coordinates":[126.304457,33.261919]},"properties":{"seq":339598,"regDate":1584139177605,"simpleNm":"대덕석유","zipCd":"63527","addr":"제주 서귀포시 안덕면","telNo":"064)792-4948","bizType":"3302","bizTypeNm":"연료판매","bizTypeDetail":"연탄 및 유류판매점","salesCd":"145"}},{"type":"Feature","geometry":{"type":"Point","coordinates":[0,0]},"properties":{"seq":455080,"regDate":1584139962587,"simpleNm":"대도종합광고","zipCd":"690736","addr":"제주 제주시 삼도2동","telNo":"064)753-1012","bizType":"3405","bizTypeNm":"건축관련업","bizTypeDetail":"지물 및 천막","salesCd":"145"}},{"type":"Feature","geometry":{"type":"Point","coordinates":[126.45789,33.47906]},"properties":{"seq":2556751,"regDate":1584154125736,"simpleNm":"대동건재","zipCd":"63076","addr":"제주 제주시 우평로 71-7","telNo":"064)712-0434","bizType":"3403","bizTypeNm":"건축관련업","bizTypeDetail":"철물점","salesCd":"166"}},{"type":"Feature","geometry":{"type":"Point","coordinates":[126.455643,33.261687]},"properties":{"seq":630724,"regDate":1584141161237,"simpleNm":"대동부엌가구","zipCd":"63541","addr":"제주 서귀포시 하원동","telNo":"064)739-0479","bizType":"3202","bizTypeNm":"주방용품","bizTypeDetail":"주방기구점","salesCd":"145"}},{"type":"Feature","geometry":{"type":"Point","coordinates":[126.517361,33.511695]},"properties":{"seq":1714871,"regDate":1584148871884,"simpleNm":"대동장식","zipCd":"63153","addr":"제주 제주시 서문로 59","telNo":"064)758-3998","bizType":"3405","bizTypeNm":"건축관련업","bizTypeDetail":"지물 및 천막","salesCd":"145"}},{"type":"Feature","geometry":{"type":"Point","coordinates":[126.474749,33.252867]},"properties":{"seq":466076,"regDate":1584140035286,"simpleNm":"대동철물","zipCd":"63557","addr":"제주 서귀포시 도순동","telNo":"064)739-0945","bizType":"3403","bizTypeNm":"건축관련업","bizTypeDetail":"철물점","salesCd":"160"}},{"type":"Feature","geometry":{"type":"Point","coordinates":[126.574013,33.26682]},"properties":{"seq":4232793,"regDate":1616710249156,"simpleNm":"대륙","zipCd":"63579","addr":"제주 서귀포시 토평서로11번길 142","telNo":"064)756-1137","bizType":"3203","bizTypeNm":"주방용품","bizTypeDetail":"주방 및 가정용품점","salesCd":"145"}},{"type":"Feature","geometry":{"type":"Point","coordinates":[126.573903,33.251838]},"properties":{"seq":530350,"regDate":1584140477156,"simpleNm":"대륙전기온돌판넬","zipCd":"63589","addr":"제주 서귀포시 태평로 531","telNo":"064)767-9204","bizType":"3402","bizTypeNm":"건축관련업","bizTypeDetail":"기계류 건축설비","salesCd":"145"}},{"type":"Feature","geometry":{"type":"Point","coordinates":[126.281237,33.425335]},"properties":{"seq":361966,"regDate":1584139323106,"simpleNm":"대림가스","zipCd":"63026","addr":"제주 제주시 한림읍","telNo":"064)796-8251","bizType":"3303","bizTypeNm":"연료판매","bizTypeDetail":"가스판매점","salesCd":"165"}},{"type":"Feature","geometry":{"type":"Point","coordinates":[0,0]},"properties":{"seq":946338,"regDate":1584143371414,"simpleNm":"대림바스","zipCd":"63306","addr":"제주 제주시 건입동","telNo":"064)758-9001","bizType":"3401","bizTypeNm":"건축관련업","bizTypeDetail":"건축자재","salesCd":"165"}},{"type":"Feature","geometry":{"type":"Point","coordinates":[0,0]},"properties":{"seq":53603,"regDate":1584137180720,"simpleNm":"대림철물상사","zipCd":"690161","addr":"제주 제주시 오라1동","telNo":"064)756-4596","bizType":"3403","bizTypeNm":"건축관련업","bizTypeDetail":"철물점","salesCd":"165"}},{"type":"Feature","geometry":{"type":"Point","coordinates":[126.56321,33.251591]},"properties":{"seq":46516,"regDate":1584137133019,"simpleNm":"대명장식","zipCd":"63590","addr":"제주 서귀포시 서귀동","telNo":"064)732-9637","bizType":"3404","bizTypeNm":"건축관련업","bizTypeDetail":"실내장식","salesCd":"145"}},{"type":"Feature","geometry":{"type":"Point","coordinates":[126.563225,33.253471]},"properties":{"seq":393646,"regDate":1584139540170,"simpleNm":"대명전기","zipCd":"63590","addr":"제주 서귀포시 서귀동","telNo":"064)732-4797","bizType":"3201","bizTypeNm":"전자제품","bizTypeDetail":"조명 전기기구점","salesCd":"145"}},{"type":"Feature","geometry":{"type":"Point","coordinates":[0,0]},"properties":{"seq":2834349,"regDate":1584155883224,"simpleNm":"대박종합유통","zipCd":"63295","addr":"제주 제주시 연삼로 673-29","telNo":"064)000-0000","bizType":"3203","bizTypeNm":"주방용품","bizTypeDetail":"주방 및 가정용품점","salesCd":"165"}},{"type":"Feature","geometry":{"type":"Point","coordinates":[126.631905,33.492455]},"properties":{"seq":786032,"regDate":1584142248658,"simpleNm":"대봉석유","zipCd":"63344","addr":"제주 제주시 조천읍","telNo":"064)757-4677","bizType":"3302","bizTypeNm":"연료판매","bizTypeDetail":"연탄 및 유류판매점","salesCd":"165"}},{"type":"Feature","geometry":{"type":"Point","coordinates":[0,0]},"properties":{"seq":312244,"regDate":1584138994027,"simpleNm":"대산유리","zipCd":"63298","addr":"제주 제주시 화북일동","telNo":"064)721-2262","bizType":"3401","bizTypeNm":"건축관련업","bizTypeDetail":"건축자재","salesCd":"145"}},{"type":"Feature","geometry":{"type":"Point","coordinates":[126.5365,33.504483]},"properties":{"seq":241731,"regDate":1584138498169,"simpleNm":"대상열쇠철물종합수리","zipCd":"63274","addr":"제주 제주시 일도이동","telNo":"064)759-1058","bizType":"3403","bizTypeNm":"건축관련업","bizTypeDetail":"철물점","salesCd":"145"}},{"type":"Feature","geometry":{"type":"Point","coordinates":[126.909277,33.432914]},"properties":{"seq":2466125,"regDate":1584153573758,"simpleNm":"대석공업사","zipCd":"63641","addr":"제주 서귀포시 성산읍 일주동로 4435","telNo":"064)782-5729","bizType":"3408","bizTypeNm":"건축관련업","bizTypeDetail":"주택,건설","salesCd":"145"}},{"type":"Feature","geometry":{"type":"Point","coordinates":[126.606799,33.518429]},"properties":{"seq":3352287,"regDate":1584159251385,"simpleNm":"대성냉동설비","zipCd":"63326","addr":"제주 제주시 돌송이길 80","telNo":"064)723-7760","bizType":"3402","bizTypeNm":"건축관련업","bizTypeDetail":"기계류 건축설비","salesCd":"145"}},{"type":"Feature","geometry":{"type":"Point","coordinates":[126.529156,33.516231]},"properties":{"seq":274754,"regDate":1584138724810,"simpleNm":"대성어구","zipCd":"63277","addr":"제주 제주시 건입동","telNo":"064)756-4545","bizType":"3405","bizTypeNm":"건축관련업","bizTypeDetail":"지물 및 천막","salesCd":"145"}},{"type":"Feature","geometry":{"type":"Point","coordinates":[126.564075,33.249453]},"properties":{"seq":20154,"regDate":1584136958861,"simpleNm":"대성전자","zipCd":"63591","addr":"제주 서귀포시 서귀동","telNo":"064)762-6457","bizType":"3101","bizTypeNm":"전자제품","bizTypeDetail":"가전제품점","salesCd":"145"}},{"type":"Feature","geometry":{"type":"Point","coordinates":[126.47311,33.49211]},"properties":{"seq":3410924,"regDate":1584159640226,"simpleNm":"대성정보통신","zipCd":"63095","addr":"제주 제주시 월광로 145-3","telNo":"064)111-1111","bizType":"6102","bizTypeNm":"사무기기","bizTypeDetail":"정보통신기기","salesCd":"145"}},{"type":"Feature","geometry":{"type":"Point","coordinates":[0,0]},"properties":{"seq":2111008,"regDate":1584151395948,"simpleNm":"대성종합장식","zipCd":"63510","addr":"제주 서귀포시 대정읍","telNo":"064)794-2505","bizType":"3405","bizTypeNm":"건축관련업","bizTypeDetail":"지물 및 천막","salesCd":"145"}},{"type":"Feature","geometry":{"type":"Point","coordinates":[126.5726,33.511682]},"properties":{"seq":1419418,"regDate":1584146810962,"simpleNm":"대성종합종합상사","zipCd":"63304","addr":"제주 제주시 연삼로 812","telNo":"064)755-1313","bizType":"3401","bizTypeNm":"건축관련업","bizTypeDetail":"건축자재","salesCd":"165"}},{"type":"Feature","geometry":{"type":"Point","coordinates":[0,0]},"properties":{"seq":212610,"regDate":1584138295470,"simpleNm":"대성지업","zipCd":"63060","addr":"제주 제주시 애월읍","telNo":"064)713-2015","bizType":"3405","bizTypeNm":"건축관련업","bizTypeDetail":"지물 및 천막","salesCd":"145"}},{"type":"Feature","geometry":{"type":"Point","coordinates":[126.253867,33.22587]},"properties":{"seq":233193,"regDate":1584138441459,"simpleNm":"대성철물","zipCd":"63508","addr":"제주 서귀포시 대정읍 동일하모로 213","telNo":"064)794-1297","bizType":"3401","bizTypeNm":"건축관련업","bizTypeDetail":"건축자재","salesCd":"145"}},{"type":"Feature","geometry":{"type":"Point","coordinates":[126.264579,33.414201]},"properties":{"seq":222097,"regDate":1584138364926,"simpleNm":"대성철물전기상사","zipCd":"63032","addr":"제주 제주시 한림읍","telNo":"064)796-2022","bizType":"3101","bizTypeNm":"전자제품","bizTypeDetail":"가전제품점","salesCd":"145"}},{"type":"Feature","geometry":{"type":"Point","coordinates":[126.477882,33.487123]},"properties":{"seq":316787,"regDate":1584139026286,"simpleNm":"대성철물종합상사","zipCd":"63099","addr":"제주 제주시 노형동","telNo":"064)749-1309","bizType":"3403","bizTypeNm":"건축관련업","bizTypeDetail":"철물점","salesCd":"145"}},{"type":"Feature","geometry":{"type":"Point","coordinates":[126.587313,33.508181]},"properties":{"seq":3386496,"regDate":1584159479127,"simpleNm":"대송산업","zipCd":"63325","addr":"제주 제주시 도련3길 14-6","telNo":"064)752-2229","bizType":"3408","bizTypeNm":"건축관련업","bizTypeDetail":"주택,건설","salesCd":"145"}},{"type":"Feature","geometry":{"type":"Point","coordinates":[126.304457,33.261919]},"properties":{"seq":1220717,"regDate":1584145406021,"simpleNm":"대승에너지","zipCd":"63527","addr":"제주 서귀포시 안덕면 덕수서로 130","telNo":"064)0000-0000","bizType":"3303","bizTypeNm":"연료판매","bizTypeDetail":"가스판매점","salesCd":"165"}},{"type":"Feature","geometry":{"type":"Point","coordinates":[126.480425,33.476458]},"properties":{"seq":193126,"regDate":1584138155187,"simpleNm":"대승철물상사","zipCd":"63089","addr":"제주 제주시 노형동","telNo":"064)758-7269","bizType":"3403","bizTypeNm":"건축관련업","bizTypeDetail":"철물점","salesCd":"145"}},{"type":"Feature","geometry":{"type":"Point","coordinates":[126.562801,33.242093]},"properties":{"seq":906907,"regDate":1584143101557,"simpleNm":"대신 샷시 종합","zipCd":"63596","addr":"제주 서귀포시 서귀동","telNo":null,"bizType":"3408","bizTypeNm":"건축관련업","bizTypeDetail":"주택,건설","salesCd":"145"}},{"type":"Feature","geometry":{"type":"Point","coordinates":[126.532543,33.494798]},"properties":{"seq":109253,"regDate":1584137581127,"simpleNm":"대신OA시스템","zipCd":"63206","addr":"제주 제주시 고산동산6길 5","telNo":"064)725-2407","bizType":"6103","bizTypeNm":"사무기기","bizTypeDetail":"컴퓨터기기","salesCd":"165"}},{"type":"Feature","geometry":{"type":"Point","coordinates":[0,0]},"properties":{"seq":360779,"regDate":1584139315165,"simpleNm":"대신유리","zipCd":"690827","addr":"제주 제주시 이도2동","telNo":"064)752-3795","bizType":"3401","bizTypeNm":"건축관련업","bizTypeDetail":"건축자재","salesCd":"145"}},{"type":"Feature","geometry":{"type":"Point","coordinates":[126.511594,33.492629]},"properties":{"seq":1932452,"regDate":1584150312131,"simpleNm":"대신중고. 주방","zipCd":"63145","addr":"제주 제주시 연삼로 180","telNo":"064)713-3121","bizType":"3199","bizTypeNm":"전자제품","bizTypeDetail":"기타 전자제품","salesCd":"145"}},{"type":"Feature","geometry":{"type":"Point","coordinates":[126.54514,33.500077]},"properties":{"seq":3684056,"regDate":1584161437929,"simpleNm":"대신카메라","zipCd":"63260","addr":"제주 제주시 태성로1길 6","telNo":"064)753-2885","bizType":"3101","bizTypeNm":"전자제품","bizTypeDetail":"가전제품점","salesCd":"145"}},{"type":"Feature","geometry":{"type":"Point","coordinates":[126.568768,33.516071]},"properties":{"seq":783711,"regDate":1584142234059,"simpleNm":"대신특장","zipCd":"63300","addr":"제주 제주시 청풍남6길 41","telNo":"064)702-0746","bizType":"3402","bizTypeNm":"건축관련업","bizTypeDetail":"기계류 건축설비","salesCd":"145"}},{"type":"Feature","geometry":{"type":"Point","coordinates":[0,0]},"properties":{"seq":429182,"regDate":1584139787070,"simpleNm":"대양기계","zipCd":"690821","addr":"제주 제주시 용담2동","telNo":"064)712-3939","bizType":"3402","bizTypeNm":"건축관련업","bizTypeDetail":"기계류 건축설비","salesCd":"165"}},{"type":"Feature","geometry":{"type":"Point","coordinates":[126.564594,33.515087]},"properties":{"seq":46724,"regDate":1584137134221,"simpleNm":"대영건설기계공업사","zipCd":"63299","addr":"제주 제주시 화북일동","telNo":"064)755-8454","bizType":"3402","bizTypeNm":"건축관련업","bizTypeDetail":"기계류 건축설비","salesCd":"145"}},{"type":"Feature","geometry":{"type":"Point","coordinates":[126.180422,33.312648]},"properties":{"seq":199291,"regDate":1584138196532,"simpleNm":"대영광명가스","zipCd":"63009","addr":"제주 제주시 한경면 용고로 260-59","telNo":"064)772-4388","bizType":"3303","bizTypeNm":"연료판매","bizTypeDetail":"가스판매점","salesCd":"166"}},{"type":"Feature","geometry":{"type":"Point","coordinates":[126.474352,33.48263]},"properties":{"seq":3566359,"regDate":1584160667642,"simpleNm":"대영볼트공구상사","zipCd":"63103","addr":"제주 제주시 노형로 357","telNo":"064)000-0000","bizType":"3403","bizTypeNm":"건축관련업","bizTypeDetail":"철물점","salesCd":"145"}},{"type":"Feature","geometry":{"type":"Point","coordinates":[126.567528,33.263688]},"properties":{"seq":1865449,"regDate":1584149915999,"simpleNm":"대영사무가구","zipCd":"63585","addr":"제주 서귀포시 동홍로 171","telNo":"064)733-6181","bizType":"3001","bizTypeNm":"가구","bizTypeDetail":"일반가구점","salesCd":"165"}},{"type":"Feature","geometry":{"type":"Point","coordinates":[126.527505,33.512144]},"properties":{"seq":2719162,"regDate":1584155155196,"simpleNm":"대영상회","zipCd":"63264","addr":"제주 제주시 동문로4길 15","telNo":"064)722-5229","bizType":"3203","bizTypeNm":"주방용품","bizTypeDetail":"주방 및 가정용품점","salesCd":"166"}},{"type":"Feature","geometry":{"type":"Point","coordinates":[126.527505,33.512144]},"properties":{"seq":2730845,"regDate":1584155231236,"simpleNm":"대영상회","zipCd":"63264","addr":"제주 제주시 동문로4길 15","telNo":"064)722-5229","bizType":"3203","bizTypeNm":"주방용품","bizTypeDetail":"주방 및 가정용품점","salesCd":"166"}},{"type":"Feature","geometry":{"type":"Point","coordinates":[126.670758,33.540084]},